{"ProviderFinderResult":
    [
        {"Adr1":"100  15TH ST NW","Adr2":"","City":"NORTON","Dist":"0.0","ID":"490001","Lat":36.932106,"Long":-82.6438,"Name":"NORTON COMMUNITY HOSPITAL","Phone":"(703) 679-8865","State":"VA","Supl":[{"Key":"type_desc","Value":"Acute Care Hospitals"},{"Key":"Srvc_value","Value":"Yes"},{"Key":"HIT_1","Value":""},{"Key":"HIT_2","Value":""},{"Key":"OP_25","Value":""},{"Key":"SM_5","Value":""}],"Zip":"24273"},
        {"Adr1":"58 CARROLL STREET","Adr2":"","City":"LEBANON","Dist":"0.0","ID":"490002","Lat":36.8989754,"Long":-82.07851,"Name":"RUSSELL COUNTY MEDICAL CENTER","Phone":"(276) 883-8100","State":"VA","Supl":[{"Key":"type_desc","Value":"Acute Care Hospitals"},{"Key":"Srvc_value","Value":"Yes"},{"Key":"HIT_1","Value":""},{"Key":"HIT_2","Value":""},{"Key":"OP_25","Value":""},{"Key":"SM_5","Value":""}],"Zip":"24266"},{"Adr1":"2010 HEALTH CAMPUS DRIVE","Adr2":"","City":"HARRISONBURG","Dist":"0.0","ID":"490004","Lat":38.4055138,"Long":-78.8573,"Name":"SENTARA RMH MEDICAL CENTER","Phone":"(540) 689-1000","State":"VA","Supl":[{"Key":"type_desc","Value":"Acute Care Hospitals"},{"Key":"Srvc_value","Value":"Yes"},{"Key":"HIT_1","Value":""},{"Key":"HIT_2","Value":""},{"Key":"OP_25","Value":""},{"Key":"SM_5","Value":""}],"Zip":"22801"},{"Adr1":"1840 AMHERST ST","Adr2":"","City":"WINCHESTER","Dist":"0.0","ID":"490005","Lat":39.1975136,"Long":-78.19175,"Name":"WINCHESTER MEDICAL CENTER","Phone":"(540) 536-8000","State":"VA","Supl":[{"Key":"type_desc","Value":"Acute Care Hospitals"},{"Key":"Srvc_value","Value":"Yes"},{"Key":"HIT_1","Value":""},{"Key":"HIT_2","Value":""},{"Key":"OP_25","Value":""},{"Key":"SM_5","Value":""}],"Zip":"22601"},{"Adr1":"600 GRESHAM DR","Adr2":"","City":"NORFOLK","Dist":"0.0","ID":"490007","Lat":36.8626823,"Long":-76.30355,"Name":"SENTARA NORFOLK GENERAL HOSPITAL","Phone":"(757) 388-3000","State":"VA","Supl":[{"Key":"type_desc","Value":"Acute Care Hospitals"},{"Key":"Srvc_value","Value":"Yes"},{"Key":"HIT_1","Value":""},{"Key":"HIT_2","Value":""},{"Key":"OP_25","Value":""},{"Key":"SM_5","Value":""}],"Zip":"23507"},{"Adr1":"JEFFERSON PARK AVE","Adr2":"","City":"CHARLOTTESVILLE","Dist":"0.0","ID":"490009","Lat":38.03194,"Long":-78.49859,"Name":"UNIVERSITY OF VIRGINIA MEDICAL CENTER","Phone":"(800) 251-3627","State":"VA","Supl":[{"Key":"type_desc","Value":"Acute Care Hospitals"},{"Key":"Srvc_value","Value":"Yes"},{"Key":"HIT_1","Value":""},{"Key":"HIT_2","Value":""},{"Key":"OP_25","Value":""},{"Key":"SM_5","Value":""}],"Zip":"22908"},{"Adr1":"150 KINGSLEY LANE","Adr2":"","City":"NORFOLK","Dist":"0.0","ID":"490011","Lat":36.89933,"Long":-76.28156,"Name":"BON SECOURS DEPAUL MEDICAL CENTER","Phone":"(757) 889-5000","State":"VA","Supl":[{"Key":"type_desc","Value":"Acute Care Hospitals"},{"Key":"Srvc_value","Value":"Yes"},{"Key":"HIT_1","Value":""},{"Key":"HIT_2","Value":""},{"Key":"OP_25","Value":""},{"Key":"SM_5","Value":""}],"Zip":"23505"},{"Adr1":"2204 WILBORN AVENUE","Adr2":"","City":"HALIFAX","Dist":"0.0","ID":"490013","Lat":36.7659721,"Long":-78.9283447,"Name":"SENTARA HALIFAX REGIONAL HOSPITAL","Phone":"(434) 517-3100","State":"VA","Supl":[{"Key":"type_desc","Value":"Acute Care Hospitals"},{"Key":"Srvc_value","Value":"Yes"},{"Key":"HIT_1","Value":""},{"Key":"HIT_2","Value":""},{"Key":"OP_25","Value":""},{"Key":"SM_5","Value":""}],"Zip":"24558"},{"Adr1":"3636 HIGH STREET","Adr2":"","City":"PORTSMOUTH","Dist":"0.0","ID":"490017","Lat":36.8382034,"Long":-76.2977,"Name":"BON SECOURS MARYVIEW MEDICAL CENTER","Phone":"(757) 398-2200","State":"VA","Supl":[{"Key":"type_desc","Value":"Acute Care Hospitals"},{"Key":"Srvc_value","Value":"Yes"},{"Key":"HIT_1","Value":""},{"Key":"HIT_2","Value":""},{"Key":"OP_25","Value":""},{"Key":"SM_5","Value":""}],"Zip":"23707"},{"Adr1":"78 MEDICAL CENTER DRIVE","Adr2":"","City":"FISHERSVILLE","Dist":"0.0","ID":"490018","Lat":38.09415,"Long":-78.9862747,"Name":"AUGUSTA HEALTH","Phone":"(540) 932-4000","State":"VA","Supl":[{"Key":"type_desc","Value":"Acute Care Hospitals"},{"Key":"Srvc_value","Value":"Yes"},{"Key":"HIT_1","Value":""},{"Key":"HIT_2","Value":""},{"Key":"OP_25","Value":""},{"Key":"SM_5","Value":""}],"Zip":"22939"},{"Adr1":"501 SUNSET LANE","Adr2":"","City":"CULPEPER","Dist":"0.0","ID":"490019","Lat":38.4556847,"Long":-78.01359,"Name":"CULPEPER COMMUNITY HOSPITAL","Phone":"(540) 829-4100","State":"VA","Supl":[{"Key":"type_desc","Value":"Acute Care Hospitals"},{"Key":"Srvc_value","Value":"Yes"},{"Key":"HIT_1","Value":""},{"Key":"HIT_2","Value":""},{"Key":"OP_25","Value":""},{"Key":"SM_5","Value":""}],"Zip":"22701"},{"Adr1":"411 WEST RANDOLPH ROAD","Adr2":"","City":"HOPEWELL","Dist":"0.0","ID":"490020","Lat":37.304554,"Long":-77.287384,"Name":"JOHN RANDOLPH MEDICAL CENTER","Phone":"(804) 541-1600","State":"VA","Supl":[{"Key":"type_desc","Value":"Acute Care Hospitals"},{"Key":"Srvc_value","Value":"Yes"},{"Key":"HIT_1","Value":""},{"Key":"HIT_2","Value":""},{"Key":"OP_25","Value":""},{"Key":"SM_5","Value":""}],"Zip":"23860"},{"Adr1":"1920 ATHERHOLT ROAD","Adr2":"","City":"LYNCHBURG","Dist":"0.0","ID":"490021","Lat":37.4136848,"Long":-79.1687,"Name":"CENTRA  HEALTH, INC","Phone":"(434) 200-4789","State":"VA","Supl":[{"Key":"type_desc","Value":"Acute Care Hospitals"},{"Key":"Srvc_value","Value":"Yes"},{"Key":"HIT_1","Value":""},{"Key":"HIT_2","Value":""},{"Key":"OP_25","Value":""},{"Key":"SM_5","Value":""}],"Zip":"24501"},{"Adr1":"1001 SAM PERRY BOULEVARD","Adr2":"","City":"FREDERICKSBURG","Dist":"0.0","ID":"490022","Lat":38.3115158,"Long":-77.4806747,"Name":"MARY WASHINGTON HOSPITAL, INC","Phone":"(540) 741-1100","State":"VA","Supl":[{"Key":"type_desc","Value":"Acute Care Hospitals"},{"Key":"Srvc_value","Value":"Yes"},{"Key":"HIT_1","Value":""},{"Key":"HIT_2","Value":""},{"Key":"OP_25","Value":""},{"Key":"SM_5","Value":""}],"Zip":"22401"},{"Adr1":"500 HOSPITAL DRIVE","Adr2":"","City":"WARRENTON","Dist":"0.0","ID":"490023","Lat":38.7132225,"Long":-77.80895,"Name":"FAUQUIER HOSPITAL","Phone":"(540) 316-5000","State":"VA","Supl":[{"Key":"type_desc","Value":"Acute Care Hospitals"},{"Key":"Srvc_value","Value":"No"},{"Key":"HIT_1","Value":""},{"Key":"HIT_2","Value":""},{"Key":"OP_25","Value":""},{"Key":"SM_5","Value":""}],"Zip":"20186"},{"Adr1":"1906 BELLEVIEW AVENUE, SE","Adr2":"","City":"ROANOKE","Dist":"0.0","ID":"490024","Lat":37.2512856,"Long":-79.94125,"Name":"CARILION ROANOKE MEMORIAL HOSPITAL","Phone":"(540) 981-7000","State":"VA","Supl":[{"Key":"type_desc","Value":"Acute Care Hospitals"},{"Key":"Srvc_value","Value":"Yes"},{"Key":"HIT_1","Value":""},{"Key":"HIT_2","Value":""},{"Key":"OP_25","Value":""},{"Key":"SM_5","Value":""}],"Zip":"24014"},{"Adr1":"1250 EAST MARSHALL STREET - BOX 980510","Adr2":"","City":"RICHMOND","Dist":"0.0","ID":"490032","Lat":37.5433,"Long":-77.42932,"Name":"MEDICAL COLLEGE OF VIRGINIA HOSPITALS","Phone":"(804) 828-0938","State":"VA","Supl":[{"Key":"type_desc","Value":"Acute Care Hospitals"},{"Key":"Srvc_value","Value":"Yes"},{"Key":"HIT_1","Value":""},{"Key":"HIT_2","Value":""},{"Key":"OP_25","Value":""},{"Key":"SM_5","Value":""}],"Zip":"23298"},{"Adr1":"1000 NORTH SHENANDOAH AVE","Adr2":"","City":"FRONT ROYAL","Dist":"0.0","ID":"490033","Lat":38.9181671,"Long":-78.19444,"Name":"WARREN MEMORIAL HOSPITAL","Phone":"(703) 636-0300","State":"VA","Supl":[{"Key":"type_desc","Value":"Acute Care Hospitals"},{"Key":"Srvc_value","Value":"Yes"},{"Key":"HIT_1","Value":""},{"Key":"HIT_2","Value":""},{"Key":"OP_25","Value":""},{"Key":"SM_5","Value":""}],"Zip":"22630"},{"Adr1":"9507 HOSPITAL AVENUE","Adr2":"","City":"NASSAWADOX","Dist":"0.0","ID":"490037","Lat":37.471447,"Long":-75.86066,"Name":"RIVERSIDE SHORE MEMORIAL HOSPITAL","Phone":"(757) 414-8000","State":"VA","Supl":[{"Key":"type_desc","Value":"Acute Care Hospitals"},{"Key":"Srvc_value","Value":"Yes"},{"Key":"HIT_1","Value":""},{"Key":"HIT_2","Value":""},{"Key":"OP_25","Value":""},{"Key":"SM_5","Value":""}],"Zip":"23413"},{"Adr1":"245 MEDICAL PARK DRIVE","Adr2":"","City":"MARION","Dist":"0.0","ID":"490038","Lat":36.83484,"Long":-81.51484,"Name":"SMYTH COUNTY COMMUNITY HOSPITAL","Phone":"(276) 378-1000","State":"VA","Supl":[{"Key":"type_desc","Value":"Acute Care Hospitals"},{"Key":"Srvc_value","Value":"Yes"},{"Key":"HIT_1","Value":""},{"Key":"HIT_2","Value":""},{"Key":"OP_25","Value":""},{"Key":"SM_5","Value":""}],"Zip":"24354"},{"Adr1":"4320 SEMINARY RD","Adr2":"","City":"ALEXANDRIA","Dist":"0.0","ID":"490040","Lat":38.824028,"Long":-77.1044846,"Name":"INOVA ALEXANDRIA HOSPITAL","Phone":"(703) 504-3167","State":"VA","Supl":[{"Key":"type_desc","Value":"Acute Care Hospitals"},{"Key":"Srvc_value","Value":"Yes"},{"Key":"HIT_1","Value":""},{"Key":"HIT_2","Value":""},{"Key":"OP_25","Value":""},{"Key":"SM_5","Value":""}],"Zip":"22304"},{"Adr1":"2 BERNARDINE DRIVE","Adr2":"","City":"NEWPORT NEWS","Dist":"0.0","ID":"490041","Lat":37.14444,"Long":-76.51118,"Name":"MARY IMMACULATE HOSPITAL","Phone":"(757) 886-6000","State":"VA","Supl":[{"Key":"type_desc","Value":"Acute Care Hospitals"},{"Key":"Srvc_value","Value":"Yes"},{"Key":"HIT_1","Value":""},{"Key":"HIT_2","Value":""},{"Key":"OP_25","Value":""},{"Key":"SM_5","Value":""}],"Zip":"23602"},{"Adr1":"2900 LAMB CIRCLE","Adr2":"","City":"CHRISTIANSBURG","Dist":"0.0","ID":"490042","Lat":37.0895653,"Long":-80.5072556,"Name":"CARILION NEW RIVER VALLEY MEDICAL CENTER","Phone":"(540) 731-2000","State":"VA","Supl":[{"Key":"type_desc","Value":"Acute Care Hospitals"},{"Key":"Srvc_value","Value":"Yes"},{"Key":"HIT_1","Value":""},{"Key":"HIT_2","Value":""},{"Key":"OP_25","Value":""},{"Key":"SM_5","Value":""}],"Zip":"24073"},{"Adr1":"44045 RIVERSIDE PARKWAY","Adr2":"","City":"LEESBURG","Dist":"0.0","ID":"490043","Lat":39.0757446,"Long":-77.4757843,"Name":"INOVA LOUDOUN HOSPITAL","Phone":"(703) 858-6600","State":"VA","Supl":[{"Key":"type_desc","Value":"Acute Care Hospitals"},{"Key":"Srvc_value","Value":"Yes"},{"Key":"HIT_1","Value":""},{"Key":"HIT_2","Value":""},{"Key":"OP_25","Value":""},{"Key":"SM_5","Value":""}],"Zip":"20176"},{"Adr1":"2800 GODWIN BOULEVARD","Adr2":"","City":"SUFFOLK","Dist":"0.0","ID":"490044","Lat":36.7737732,"Long":-76.57856,"Name":"SENTARA OBICI HOSPITAL","Phone":"(757) 934-4000","State":"VA","Supl":[{"Key":"type_desc","Value":"Acute Care Hospitals"},{"Key":"Srvc_value","Value":"Yes"},{"Key":"HIT_1","Value":""},{"Key":"HIT_2","Value":""},{"Key":"OP_25","Value":""},{"Key":"SM_5","Value":""}],"Zip":"23439"},{"Adr1":"8700 SUDLEY RD","Adr2":"","City":"MANASSAS","Dist":"0.0","ID":"490045","Lat":38.7673073,"Long":-77.4876556,"Name":"NOVANT HEALTH PRINCE WILLIAM MEDICAL CENTER","Phone":"(703) 369-8000","State":"VA","Supl":[{"Key":"type_desc","Value":"Acute Care Hospitals"},{"Key":"Srvc_value","Value":"Yes"},{"Key":"HIT_1","Value":""},{"Key":"HIT_2","Value":""},{"Key":"OP_25","Value":""},{"Key":"SM_5","Value":""}],"Zip":"20110"},{"Adr1":"830 KEMPSVILLE ROAD","Adr2":"","City":"NORFOLK","Dist":"0.0","ID":"490046","Lat":36.85098,"Long":-76.1898956,"Name":"SENTARA LEIGH HOSPITAL","Phone":"(757) 261-6601","State":"VA","Supl":[{"Key":"type_desc","Value":"Acute Care Hospitals"},{"Key":"Srvc_value","Value":"Yes"},{"Key":"HIT_1","Value":""},{"Key":"HIT_2","Value":""},{"Key":"OP_25","Value":""},{"Key":"SM_5","Value":""}],"Zip":"23502"},{"Adr1":"1900 ELECTRIC ROAD","Adr2":"","City":"SALEM","Dist":"0.0","ID":"490048","Lat":37.2636871,"Long":-80.031395,"Name":"LEWISGALE MEDICAL CENTER","Phone":"(540) 776-4000","State":"VA","Supl":[{"Key":"type_desc","Value":"Acute Care Hospitals"},{"Key":"Srvc_value","Value":"Yes"},{"Key":"HIT_1","Value":""},{"Key":"HIT_2","Value":""},{"Key":"OP_25","Value":""},{"Key":"SM_5","Value":""}],"Zip":"24153"},{"Adr1":"1701 NORTH GEORGE MASON DRIVE","Adr2":"","City":"ARLINGTON","Dist":"0.0","ID":"490050","Lat":38.88912,"Long":-77.12763,"Name":"VIRGINIA HOSPITAL CENTER","Phone":"(703) 558-5000","State":"VA","Supl":[{"Key":"type_desc","Value":"Acute Care Hospitals"},{"Key":"Srvc_value","Value":"Yes"},{"Key":"HIT_1","Value":""},{"Key":"HIT_2","Value":""},{"Key":"OP_25","Value":""},{"Key":"SM_5","Value":""}],"Zip":"22205"},{"Adr1":"500 J CLYDE MORRIS BLVD","Adr2":"","City":"NEWPORT NEWS","Dist":"0.0","ID":"490052","Lat":37.0640335,"Long":-76.4838638,"Name":"RIVERSIDE REGIONAL MEDICAL CENTER","Phone":"(757) 594-2000","State":"VA","Supl":[{"Key":"type_desc","Value":"Acute Care Hospitals"},{"Key":"Srvc_value","Value":"Yes"},{"Key":"HIT_1","Value":""},{"Key":"HIT_2","Value":""},{"Key":"OP_25","Value":""},{"Key":"SM_5","Value":""}],"Zip":"23601"},{"Adr1":"16000 JOHNSTON MEMORIAL DRIVE","Adr2":"","City":"ABINGDON","Dist":"0.0","ID":"490053","Lat":36.7098351,"Long":-81.97735,"Name":"JOHNSTON MEMORIAL HOSPITAL","Phone":"(276) 258-1000","State":"VA","Supl":[{"Key":"type_desc","Value":"Acute Care Hospitals"},{"Key":"Srvc_value","Value":"Yes"},{"Key":"HIT_1","Value":""},{"Key":"HIT_2","Value":""},{"Key":"OP_25","Value":""},{"Key":"SM_5","Value":""}],"Zip":"24211"},{"Adr1":"1060 FIRST COLONIAL ROAD","Adr2":"","City":"VIRGINIA BEACH","Dist":"0.0","ID":"490057","Lat":36.8651733,"Long":-76.0259,"Name":"SENTARA VIRGINIA BEACH GENERAL HOSPITAL","Phone":"(757) 395-8000","State":"VA","Supl":[{"Key":"type_desc","Value":"Acute Care Hospitals"},{"Key":"Srvc_value","Value":"Yes"},{"Key":"HIT_1","Value":""},{"Key":"HIT_2","Value":""},{"Key":"OP_25","Value":""},{"Key":"SM_5","Value":""}],"Zip":"23454"},{"Adr1":"5801 BREMO RD","Adr2":"","City":"RICHMOND","Dist":"0.0","ID":"490059","Lat":37.584404,"Long":-77.51248,"Name":"BON SECOURS ST MARYS HOSPITAL","Phone":"(804) 285-2011","State":"VA","Supl":[{"Key":"type_desc","Value":"Acute Care Hospitals"},{"Key":"Srvc_value","Value":"No"},{"Key":"HIT_1","Value":""},{"Key":"HIT_2","Value":""},{"Key":"OP_25","Value":""},{"Key":"SM_5","Value":""}],"Zip":"23226"},{"Adr1":"2949 WEST FRONT STREET","Adr2":"","City":"RICHLANDS","Dist":"0.0","ID":"490060","Lat":37.0937576,"Long":-81.78432,"Name":"CLINCH VALLEY MEDICAL CENTER","Phone":"(276) 596-6000","State":"VA","Supl":[{"Key":"type_desc","Value":"Acute Care Hospitals"},{"Key":"Srvc_value","Value":"Yes"},{"Key":"HIT_1","Value":""},{"Key":"HIT_2","Value":""},{"Key":"OP_25","Value":""},{"Key":"SM_5","Value":""}],"Zip":"24641"},{"Adr1":"8110 GATEHOUSE ROAD, 400 WEST","Adr2":"","City":"FALLS CHURCH","Dist":"0.0","ID":"490063","Lat":38.8691864,"Long":-77.22374,"Name":"INOVA FAIRFAX HOSPITAL","Phone":"(703) 776-3332","State":"VA","Supl":[{"Key":"type_desc","Value":"Acute Care Hospitals"},{"Key":"Srvc_value","Value":"Yes"},{"Key":"HIT_1","Value":""},{"Key":"HIT_2","Value":""},{"Key":"OP_25","Value":""},{"Key":"SM_5","Value":""}],"Zip":"22042"},{"Adr1":"100 SENTARA CIRCLE","Adr2":"","City":"WILLIAMSBURG","Dist":"0.0","ID":"490066","Lat":37.33653,"Long":-76.74087,"Name":"SENTARA WILLIAMSBURG REGIONAL MEDICAL CENTER","Phone":"(757) 984-6000","State":"VA","Supl":[{"Key":"type_desc","Value":"Acute Care Hospitals"},{"Key":"Srvc_value","Value":"Yes"},{"Key":"HIT_1","Value":""},{"Key":"HIT_2","Value":""},{"Key":"OP_25","Value":""},{"Key":"SM_5","Value":""}],"Zip":"23188"},{"Adr1":"200 MEDICAL PARK BOULEVARD","Adr2":"","City":"PETERSBURG","Dist":"0.0","ID":"490067","Lat":37.18253,"Long":-77.35957,"Name":"SOUTHSIDE REGIONAL MEDICAL CENTER","Phone":"(804) 765-5000","State":"VA","Supl":[{"Key":"type_desc","Value":"Acute Care Hospitals"},{"Key":"Srvc_value","Value":"Yes"},{"Key":"HIT_1","Value":""},{"Key":"HIT_2","Value":""},{"Key":"OP_25","Value":""},{"Key":"SM_5","Value":""}],"Zip":"23805"},{"Adr1":"8260 ATLEE ROAD","Adr2":"","City":"MECHANICSVILLE","Dist":"0.0","ID":"490069","Lat":37.62979,"Long":-77.38591,"Name":"BON SECOURS MEMORIAL REGIONAL MEDICAL CENTER","Phone":"(804) 764-6000","State":"VA","Supl":[{"Key":"type_desc","Value":"Acute Care Hospitals"},{"Key":"Srvc_value","Value":"Yes"},{"Key":"HIT_1","Value":""},{"Key":"HIT_2","Value":""},{"Key":"OP_25","Value":""},{"Key":"SM_5","Value":""}],"Zip":"23116"},{"Adr1":"100 EMANCIPATION DRIVE","Adr2":"","City":"HAMPTON","Dist":"0.0","ID":"49006F","Lat":37.0164,"Long":-76.33342,"Name":"HAMPTON VA MEDICAL CENTER","Phone":"(757) 722-9961","State":"VA","Supl":[{"Key":"type_desc","Value":"ACUTE CARE - VETERANS ADMINISTRATION"},{"Key":"Srvc_value","Value":"No"},{"Key":"HIT_1","Value":""},{"Key":"HIT_2","Value":""},{"Key":"OP_25","Value":""},{"Key":"SM_5","Value":""}],"Zip":"23667"},{"Adr1":"142 SOUTH MAIN STREET","Adr2":"","City":"DANVILLE","Dist":"0.0","ID":"490075","Lat":36.5783119,"Long":-79.40418,"Name":"DANVILLE REGIONAL MEDICAL CENTER","Phone":"(434) 799-2100","State":"VA","Supl":[{"Key":"type_desc","Value":"Acute Care Hospitals"},{"Key":"Srvc_value","Value":"Yes"},{"Key":"HIT_1","Value":""},{"Key":"HIT_2","Value":""},{"Key":"OP_25","Value":""},{"Key":"SM_5","Value":""}],"Zip":"24541"},{"Adr1":"500 MARTHA JEFFERSON DRIVE","Adr2":"","City":"CHARLOTTESVILLE","Dist":"0.0","ID":"490077","Lat":38.02176,"Long":-78.4453049,"Name":"MARTHA JEFFERSON HOSPITAL","Phone":"(434) 654-7000","State":"VA","Supl":[{"Key":"type_desc","Value":"Acute Care Hospitals"},{"Key":"Srvc_value","Value":"Yes"},{"Key":"HIT_1","Value":""},{"Key":"HIT_2","Value":""},{"Key":"OP_25","Value":""},{"Key":"SM_5","Value":""}],"Zip":"22911"},{"Adr1":"320 HOSPITAL DRIVE","Adr2":"","City":"MARTINSVILLE","Dist":"0.0","ID":"490079","Lat":36.69928,"Long":-79.8671646,"Name":"MEMORIAL HOSPITAL OF MARTINSVILLE & HENRY COUNTY","Phone":"(276) 666-7200","State":"VA","Supl":[{"Key":"type_desc","Value":"Acute Care Hospitals"},{"Key":"Srvc_value","Value":"Yes"},{"Key":"HIT_1","Value":""},{"Key":"HIT_2","Value":""},{"Key":"OP_25","Value":""},{"Key":"SM_5","Value":""}],"Zip":"24115"},{"Adr1":"618 HOSPITAL ROAD","Adr2":"","City":"TAPPAHANNOCK","Dist":"0.0","ID":"490084","Lat":37.9009323,"Long":-76.8789139,"Name":"RIVERSIDE TAPPAHANNOCK HOSPITAL","Phone":"(804) 443-6189","State":"VA","Supl":[{"Key":"type_desc","Value":"Acute Care Hospitals"},{"Key":"Srvc_value","Value":"Yes"},{"Key":"HIT_1","Value":""},{"Key":"HIT_2","Value":""},{"Key":"OP_25","Value":""},{"Key":"SM_5","Value":""}],"Zip":"22560"},{"Adr1":"1613 OAKWOOD STREET","Adr2":"","City":"BEDFORD","Dist":"0.0","ID":"490088","Lat":37.351963,"Long":-79.51635,"Name":"BEDFORD MEMORIAL HOSPITAL","Phone":"(434) 200-6366","State":"VA","Supl":[{"Key":"type_desc","Value":"Acute Care Hospitals"},{"Key":"Srvc_value","Value":"Yes"},{"Key":"HIT_1","Value":""},{"Key":"HIT_2","Value":""},{"Key":"OP_25","Value":""},{"Key":"SM_5","Value":""}],"Zip":"24523"},{"Adr1":"180 FLOYD AVENUE","Adr2":"","City":"ROCKY MOUNT","Dist":"0.0","ID":"490089","Lat":36.99444,"Long":-79.8897,"Name":"CARILION FRANKLIN MEMORIAL HOSPITAL","Phone":"(540) 483-5277","State":"VA","Supl":[{"Key":"type_desc","Value":"Acute Care Hospitals"},{"Key":"Srvc_value","Value":"Yes"},{"Key":"HIT_1","Value":""},{"Key":"HIT_2","Value":""},{"Key":"OP_25","Value":""},{"Key":"SM_5","Value":""}],"Zip":"24151"},{"Adr1":"800 OAK STREET","Adr2":"","City":"FARMVILLE","Dist":"0.0","ID":"490090","Lat":37.3030434,"Long":-78.40256,"Name":"SOUTHSIDE COMMUNITY HOSPITAL, INC","Phone":"(434) 392-8811","State":"VA","Supl":[{"Key":"type_desc","Value":"Acute Care Hospitals"},{"Key":"Srvc_value","Value":"Yes"},{"Key":"HIT_1","Value":""},{"Key":"HIT_2","Value":""},{"Key":"OP_25","Value":""},{"Key":"SM_5","Value":""}],"Zip":"23901"},{"Adr1":"100 FAIRVIEW DRIVE - PO BOX 817","Adr2":"","City":"FRANKLIN","Dist":"0.0","ID":"490092","Lat":36.67765,"Long":-76.92246,"Name":"SOUTHAMPTON MEMORIAL HOSPITAL","Phone":"(757) 569-6100","State":"VA","Supl":[{"Key":"type_desc","Value":"Acute Care Hospitals"},{"Key":"Srvc_value","Value":"Yes"},{"Key":"HIT_1","Value":""},{"Key":"HIT_2","Value":""},{"Key":"OP_25","Value":""},{"Key":"SM_5","Value":""}],"Zip":"23851"},{"Adr1":"3000 COLISEUM DRIVE","Adr2":"","City":"HAMPTON","Dist":"0.0","ID":"490093","Lat":37.0565376,"Long":-76.39045,"Name":"SENTARA CAREPLEX HOSPITAL","Phone":"(757) 736-1000","State":"VA","Supl":[{"Key":"type_desc","Value":"Acute Care Hospitals"},{"Key":"Srvc_value","Value":"Yes"},{"Key":"HIT_1","Value":""},{"Key":"HIT_2","Value":""},{"Key":"OP_25","Value":""},{"Key":"SM_5","Value":""}],"Zip":"23666"},{"Adr1":"1500 N. 28TH STREET","Adr2":"","City":"RICHMOND","Dist":"0.0","ID":"490094","Lat":37.5404053,"Long":-77.4066849,"Name":"BON SECOURS RICHMOND COMMUNITY HOSPITAL","Phone":"(804) 225-1700","State":"VA","Supl":[{"Key":"type_desc","Value":"Acute Care Hospitals"},{"Key":"Srvc_value","Value":"Yes"},{"Key":"HIT_1","Value":""},{"Key":"HIT_2","Value":""},{"Key":"OP_25","Value":""},{"Key":"SM_5","Value":""}],"Zip":"23223"},{"Adr1":"727 NORTH MAIN STREET","Adr2":"","City":"EMPORIA","Dist":"0.0","ID":"490097","Lat":36.70242,"Long":-77.53562,"Name":"SOUTHERN VIRGINIA REGIONAL MEDICAL CENTER","Phone":"(434) 348-4400","State":"VA","Supl":[{"Key":"type_desc","Value":"Acute Care Hospitals"},{"Key":"Srvc_value","Value":"Yes"},{"Key":"HIT_1","Value":""},{"Key":"HIT_2","Value":""},{"Key":"OP_25","Value":""},{"Key":"SM_5","Value":""}],"Zip":"23847"},{"Adr1":"125 BUENA VISTA CIRCLE","Adr2":"","City":"SOUTH HILL","Dist":"0.0","ID":"490098","Lat":36.7344131,"Long":-78.1334839,"Name":"COMMUNITY MEMORIAL HEALTHCENTER, INC","Phone":"(434) 447-3151","State":"VA","Supl":[{"Key":"type_desc","Value":"Acute Care Hospitals"},{"Key":"Srvc_value","Value":"Yes"},{"Key":"HIT_1","Value":""},{"Key":"HIT_2","Value":""},{"Key":"OP_25","Value":""},{"Key":"SM_5","Value":""}],"Zip":"23970"},{"Adr1":"3600 JOSEPH SIEWICK DRIVE","Adr2":"","City":"FAIRFAX","Dist":"0.0","ID":"490101","Lat":38.8848343,"Long":-77.3799438,"Name":"INOVA FAIR OAKS HOSPITAL","Phone":"(703) 391-4170","State":"VA","Supl":[{"Key":"type_desc","Value":"Acute Care Hospitals"},{"Key":"Srvc_value","Value":"Yes"},{"Key":"HIT_1","Value":""},{"Key":"HIT_2","Value":""},{"Key":"OP_25","Value":""},{"Key":"SM_5","Value":""}],"Zip":"22033"},{"Adr1":"1850 TOWN CENTER PARKWAY","Adr2":"","City":"RESTON","Dist":"0.0","ID":"490107","Lat":38.9580078,"Long":-77.35482,"Name":"RESTON HOSPITAL CENTER","Phone":"(703) 689-9000","State":"VA","Supl":[{"Key":"type_desc","Value":"Acute Care Hospitals"},{"Key":"Srvc_value","Value":"Yes"},{"Key":"HIT_1","Value":""},{"Key":"HIT_2","Value":""},{"Key":"OP_25","Value":""},{"Key":"SM_5","Value":""}],"Zip":"20190"},{"Adr1":"1201 BROAD ROCK BOULEVARD","Adr2":"","City":"RICHMOND","Dist":"0.0","ID":"49010F","Lat":37.49646,"Long":-77.4658356,"Name":"RICHMOND VA MEDICAL CENTER","Phone":"(804) 675-5000","State":"VA","Supl":[{"Key":"type_desc","Value":"ACUTE CARE - VETERANS ADMINISTRATION"},{"Key":"Srvc_value","Value":"No"},{"Key":"HIT_1","Value":""},{"Key":"HIT_2","Value":""},{"Key":"OP_25","Value":""},{"Key":"SM_5","Value":""}],"Zip":"23249"},{"Adr1":"3700 SOUTH MAIN STREET","Adr2":"","City":"BLACKSBURG","Dist":"0.0","ID":"490110","Lat":37.21475,"Long":-80.4006348,"Name":"LEWISGALE HOSPITAL MONTGOMERY","Phone":"(540) 951-1111","State":"VA","Supl":[{"Key":"type_desc","Value":"Acute Care Hospitals"},{"Key":"Srvc_value","Value":"Yes"},{"Key":"HIT_1","Value":""},{"Key":"HIT_2","Value":""},{"Key":"OP_25","Value":""},{"Key":"SM_5","Value":""}],"Zip":"24060"},{"Adr1":"600 WEST RIDGE ROAD","Adr2":"","City":"WYTHEVILLE","Dist":"0.0","ID":"490111","Lat":36.9547729,"Long":-81.09688,"Name":"WYTHE COUNTY COMMUNITY HOSPITAL","Phone":"(276) 228-0200","State":"VA","Supl":[{"Key":"type_desc","Value":"Acute Care Hospitals"},{"Key":"Srvc_value","Value":"Yes"},{"Key":"HIT_1","Value":""},{"Key":"HIT_2","Value":""},{"Key":"OP_25","Value":""},{"Key":"SM_5","Value":""}],"Zip":"24382"},{"Adr1":"7101 JAHNKE ROAD","Adr2":"","City":"RICHMOND","Dist":"0.0","ID":"490112","Lat":37.5156822,"Long":-77.5261,"Name":"CJW MEDICAL CENTER","Phone":"(804) 330-2001","State":"VA","Supl":[{"Key":"type_desc","Value":"Acute Care Hospitals"},{"Key":"Srvc_value","Value":"Yes"},{"Key":"HIT_1","Value":""},{"Key":"HIT_2","Value":""},{"Key":"OP_25","Value":""},{"Key":"SM_5","Value":""}],"Zip":"23235"},{"Adr1":"2300 OPITZ BOULEVARD","Adr2":"","City":"WOODBRIDGE","Dist":"0.0","ID":"490113","Lat":38.6370544,"Long":-77.28608,"Name":"SENTARA NORTHERN VIRGINIA MEDICAL CENTER","Phone":"(703) 523-1000","State":"VA","Supl":[{"Key":"type_desc","Value":"Acute Care Hospitals"},{"Key":"Srvc_value","Value":"Yes"},{"Key":"HIT_1","Value":""},{"Key":"HIT_2","Value":""},{"Key":"OP_25","Value":""},{"Key":"SM_5","Value":""}],"Zip":"22191"},{"Adr1":"1990 HOLTON AVENUE EAST","Adr2":"","City":"BIG STONE GAP","Dist":"0.0","ID":"490114","Lat":36.8600273,"Long":-82.777916,"Name":"WELLMONT LONESOME PINE HOSPITAL","Phone":"(276) 523-3111","State":"VA","Supl":[{"Key":"type_desc","Value":"Acute Care Hospitals"},{"Key":"Srvc_value","Value":"Yes"},{"Key":"HIT_1","Value":""},{"Key":"HIT_2","Value":""},{"Key":"OP_25","Value":""},{"Key":"SM_5","Value":""}],"Zip":"24219"},{"Adr1":"200 HOSPITAL DRIVE","Adr2":"","City":"GALAX","Dist":"0.0","ID":"490115","Lat":36.67303,"Long":-80.92334,"Name":"TWIN COUNTY REGIONAL HOSPITAL","Phone":"(276) 236-8181","State":"VA","Supl":[{"Key":"type_desc","Value":"Acute Care Hospitals"},{"Key":"Srvc_value","Value":"Yes"},{"Key":"HIT_1","Value":""},{"Key":"HIT_2","Value":""},{"Key":"OP_25","Value":""},{"Key":"SM_5","Value":""}],"Zip":"24333"},{"Adr1":"2400 LEE HIGHWAY","Adr2":"","City":"PULASKI","Dist":"0.0","ID":"490116","Lat":37.06813,"Long":-80.75685,"Name":"LEWISGALE HOSPITAL PULASKI","Phone":"(540) 994-8100","State":"VA","Supl":[{"Key":"type_desc","Value":"Acute Care Hospitals"},{"Key":"Srvc_value","Value":"Yes"},{"Key":"HIT_1","Value":""},{"Key":"HIT_2","Value":""},{"Key":"OP_25","Value":""},{"Key":"SM_5","Value":""}],"Zip":"24301"},{"Adr1":"141 BEN BOLT AVENUE","Adr2":"","City":"TAZEWELL","Dist":"0.0","ID":"490117","Lat":37.12397,"Long":-81.4890442,"Name":"CARILION TAZEWELL COMMUNITY HOSPITAL","Phone":"(276) 988-8700","State":"VA","Supl":[{"Key":"type_desc","Value":"Acute Care Hospitals"},{"Key":"Srvc_value","Value":"Yes"},{"Key":"HIT_1","Value":""},{"Key":"HIT_2","Value":""},{"Key":"OP_25","Value":""},{"Key":"SM_5","Value":""}],"Zip":"24651"},{"Adr1":"1602 SKIPWITH ROAD","Adr2":"","City":"RICHMOND","Dist":"0.0","ID":"490118","Lat":37.60459,"Long":-77.53928,"Name":"HENRICO DOCTORS' HOSPITAL","Phone":"(804) 289-4500","State":"VA","Supl":[{"Key":"type_desc","Value":"Acute Care Hospitals"},{"Key":"Srvc_value","Value":"Yes"},{"Key":"HIT_1","Value":""},{"Key":"HIT_2","Value":""},{"Key":"OP_25","Value":""},{"Key":"SM_5","Value":""}],"Zip":"23229"},{"Adr1":"2025 GLENN MITCHELL DRIVE","Adr2":"","City":"VIRGINIA BEACH","Dist":"0.0","ID":"490119","Lat":36.7759,"Long":-76.0975342,"Name":"SENTARA PRINCESS ANNE HOSPITAL","Phone":"(757) 507-1520","State":"VA","Supl":[{"Key":"type_desc","Value":"Acute Care Hospitals"},{"Key":"Srvc_value","Value":"Yes"},{"Key":"HIT_1","Value":""},{"Key":"HIT_2","Value":""},{"Key":"OP_25","Value":""},{"Key":"SM_5","Value":""}],"Zip":"23456"},{"Adr1":"1970 BOULEVARD","Adr2":"","City":"SALEM","Dist":"0.0","ID":"49011F","Lat":37.28339,"Long":-80.0919342,"Name":"SALEM VA MEDICAL CENTER","Phone":"(540) 982-2463","State":"VA","Supl":[{"Key":"type_desc","Value":"ACUTE CARE - VETERANS ADMINISTRATION"},{"Key":"Srvc_value","Value":"No"},{"Key":"HIT_1","Value":""},{"Key":"HIT_2","Value":""},{"Key":"OP_25","Value":""},{"Key":"SM_5","Value":""}],"Zip":"24153"},{"Adr1":"736 BATTLEFIELD BLVD, NORTH","Adr2":"","City":"CHESAPEAKE","Dist":"0.0","ID":"490120","Lat":36.7473068,"Long":-76.2468,"Name":"CHESAPEAKE GENERAL HOSPITAL","Phone":"(757) 312-8121","State":"VA","Supl":[{"Key":"type_desc","Value":"Acute Care Hospitals"},{"Key":"Srvc_value","Value":"Yes"},{"Key":"HIT_1","Value":""},{"Key":"HIT_2","Value":""},{"Key":"OP_25","Value":""},{"Key":"SM_5","Value":""}],"Zip":"23320"},{"Adr1":"2501 PARKERS LANE","Adr2":"","City":"ALEXANDRIA","Dist":"0.0","ID":"490122","Lat":38.73941,"Long":-77.0743561,"Name":"INOVA MOUNT VERNON HOSPITAL","Phone":"(703) 664-7000","State":"VA","Supl":[{"Key":"type_desc","Value":"Acute Care Hospitals"},{"Key":"Srvc_value","Value":"Yes"},{"Key":"HIT_1","Value":""},{"Key":"HIT_2","Value":""},{"Key":"OP_25","Value":""},{"Key":"SM_5","Value":""}],"Zip":"22306"},{"Adr1":"101 HARRIS ROAD","Adr2":"","City":"KILMARNOCK","Dist":"0.0","ID":"490123","Lat":37.70476,"Long":-76.39355,"Name":"RAPPAHANNOCK GENERAL HOSPITAL","Phone":"(804) 435-8000","State":"VA","Supl":[{"Key":"type_desc","Value":"Acute Care Hospitals"},{"Key":"Srvc_value","Value":"Yes"},{"Key":"HIT_1","Value":""},{"Key":"HIT_2","Value":""},{"Key":"OP_25","Value":""},{"Key":"SM_5","Value":""}],"Zip":"22482"},{"Adr1":"ONE ARH LANE - PO BOX 7","Adr2":"","City":"LOW MOOR","Dist":"0.0","ID":"490126","Lat":37.7872162,"Long":-79.881485,"Name":"LEWISGALE HOSPITAL ALLEGHANY","Phone":"(540) 862-6011","State":"VA","Supl":[{"Key":"type_desc","Value":"Acute Care Hospitals"},{"Key":"Srvc_value","Value":"Yes"},{"Key":"HIT_1","Value":""},{"Key":"HIT_2","Value":""},{"Key":"OP_25","Value":""},{"Key":"SM_5","Value":""}],"Zip":"24457"},{"Adr1":"1535 SLATE CREEK ROAD","Adr2":"","City":"GRUNDY","Dist":"0.0","ID":"490127","Lat":37.2857933,"Long":-82.06668,"Name":"BUCHANAN GENERAL HOSPITAL","Phone":"(276) 935-1000","State":"VA","Supl":[{"Key":"type_desc","Value":"Acute Care Hospitals"},{"Key":"Srvc_value","Value":"Yes"},{"Key":"HIT_1","Value":""},{"Key":"HIT_2","Value":""},{"Key":"OP_25","Value":""},{"Key":"SM_5","Value":""}],"Zip":"24614"},{"Adr1":"7519 HOSPITAL ROAD","Adr2":"","City":"GLOUCESTER","Dist":"0.0","ID":"490130","Lat":37.4201965,"Long":-76.5424652,"Name":"RIVERSIDE WALTER REED HOSPITAL","Phone":"(804) 693-8800","State":"VA","Supl":[{"Key":"type_desc","Value":"Acute Care Hospitals"},{"Key":"Srvc_value","Value":"Yes"},{"Key":"HIT_1","Value":""},{"Key":"HIT_2","Value":""},{"Key":"OP_25","Value":""},{"Key":"SM_5","Value":""}],"Zip":"23061"},{"Adr1":"13710 ST FRANCIS BOULEVARD","Adr2":"","City":"MIDLOTHIAN","Dist":"0.0","ID":"490136","Lat":37.4658279,"Long":-77.66197,"Name":"BON SECOURS ST FRANCIS MEDICAL CENTER","Phone":"(804) 594-7400","State":"VA","Supl":[{"Key":"type_desc","Value":"Acute Care Hospitals"},{"Key":"Srvc_value","Value":"Yes"},{"Key":"HIT_1","Value":""},{"Key":"HIT_2","Value":""},{"Key":"OP_25","Value":""},{"Key":"SM_5","Value":""}],"Zip":"23114"},{"Adr1":"101 HOSPITAL CENTER BOULEVARD, SUITE 307","Adr2":"","City":"STAFFORD","Dist":"0.0","ID":"490140","Lat":38.4141121,"Long":-77.407,"Name":"STAFFORD HOSPITAL, LLC","Phone":"(540) 741-9000","State":"VA","Supl":[{"Key":"type_desc","Value":"Acute Care Hospitals"},{"Key":"Srvc_value","Value":"Yes"},{"Key":"HIT_1","Value":""},{"Key":"HIT_2","Value":""},{"Key":"OP_25","Value":""},{"Key":"SM_5","Value":""}],"Zip":"22554"},{"Adr1":"4600 SPOTSYLVANIA PARKWAY","Adr2":"","City":"FREDERICKSBURG","Dist":"0.0","ID":"490141","Lat":38.24593,"Long":-77.49582,"Name":"SPOTSYLVANIA REGIONAL MEDICAL CENTER","Phone":"(540) 498-4000","State":"VA","Supl":[{"Key":"type_desc","Value":"Acute Care Hospitals"},{"Key":"Srvc_value","Value":"Yes"},{"Key":"HIT_1","Value":""},{"Key":"HIT_2","Value":""},{"Key":"OP_25","Value":""},{"Key":"SM_5","Value":""}],"Zip":"22408"},{"Adr1":"1500 COMMONWEALTH AVENUE","Adr2":"","City":"WILLIAMSBURG","Dist":"0.0","ID":"490143","Lat":37.25096,"Long":-76.66736,"Name":"RIVERSIDE DOCTORS' HOSPITAL OF WILLIAMSBURG","Phone":"(757) 345-3000","State":"VA","Supl":[{"Key":"type_desc","Value":"Acute Care Hospitals"},{"Key":"Srvc_value","Value":"Yes"},{"Key":"HIT_1","Value":""},{"Key":"HIT_2","Value":""},{"Key":"OP_25","Value":""},{"Key":"SM_5","Value":""}],"Zip":"23185"},{"Adr1":"15225 HEALTHCOTE BOULEVARD","Adr2":"","City":"HAYMARKET","Dist":"0.0","ID":"490144","Lat":38.8207054,"Long":-77.6424,"Name":"NOVANT HEALTH HAYMARKET MEDICAL CENTER","Phone":"(571) 284-1000","State":"VA","Supl":[{"Key":"type_desc","Value":"Acute Care Hospitals"},{"Key":"Srvc_value","Value":"Yes"},{"Key":"HIT_1","Value":""},{"Key":"HIT_2","Value":""},{"Key":"OP_25","Value":""},{"Key":"SM_5","Value":""}],"Zip":"20169"},{"Adr1":"106 PARK DRIVE- PO DRAWER Z","Adr2":"","City":"HOT SPRINGS","Dist":"0.0","ID":"491300","Lat":37.9994,"Long":-79.83159,"Name":"BATH COMMUNITY HOSPITAL","Phone":"(540) 839-7137","State":"VA","Supl":[{"Key":"type_desc","Value":"Critical Access Hospitals"},{"Key":"Srvc_value","Value":"Yes"},{"Key":"HIT_1","Value":""},{"Key":"HIT_2","Value":""},{"Key":"OP_25","Value":""},{"Key":"SM_5","Value":""}],"Zip":"24445"},{"Adr1":"159 HARTLEY WAY","Adr2":"","City":"PEARISBURG","Dist":"0.0","ID":"491302","Lat":37.32651,"Long":-80.73507,"Name":"CARILION GILES COMMUNITY HOSPITAL","Phone":"(540) 921-6000","State":"VA","Supl":[{"Key":"type_desc","Value":"Critical Access Hospitals"},{"Key":"Srvc_value","Value":"Yes"},{"Key":"HIT_1","Value":""},{"Key":"HIT_2","Value":""},{"Key":"OP_25","Value":""},{"Key":"SM_5","Value":""}],"Zip":"24134"},{"Adr1":"312 HOSPITAL DRIVE","Adr2":"","City":"CLINTWOOD","Dist":"0.0","ID":"491303","Lat":37.16174,"Long":-82.45101,"Name":"DICKENSON COMMUNITY HOSPITAL","Phone":"(276) 926-0300","State":"VA","Supl":[{"Key":"type_desc","Value":"Critical Access Hospitals"},{"Key":"Srvc_value","Value":"Yes"},{"Key":"HIT_1","Value":""},{"Key":"HIT_2","Value":""},{"Key":"OP_25","Value":""},{"Key":"SM_5","Value":""}],"Zip":"24228"},{"Adr1":"1 HEALTH CIRCLE","Adr2":"","City":"LEXINGTON","Dist":"0.0","ID":"491304","Lat":37.7794075,"Long":-79.4427643,"Name":"CARILION STONEWALL JACKSON HOSPITAL","Phone":"(540) 458-3503","State":"VA","Supl":[{"Key":"type_desc","Value":"Critical Access Hospitals"},{"Key":"Srvc_value","Value":"Yes"},{"Key":"HIT_1","Value":""},{"Key":"HIT_2","Value":""},{"Key":"OP_25","Value":""},{"Key":"SM_5","Value":""}],"Zip":"24450"},{"Adr1":"759 SOUTH MAIN STREET","Adr2":"","City":"WOODSTOCK","Dist":"0.0","ID":"491305","Lat":38.8817253,"Long":-78.5052643,"Name":"SHENANDOAH MEMORIAL HOSPITAL","Phone":"(540) 459-1100","State":"VA","Supl":[{"Key":"type_desc","Value":"Critical Access Hospitals"},{"Key":"Srvc_value","Value":"Yes"},{"Key":"HIT_1","Value":""},{"Key":"HIT_2","Value":""},{"Key":"OP_25","Value":""},{"Key":"SM_5","Value":""}],"Zip":"22664"},{"Adr1":"18688 JEB STUART HIGHWAY","Adr2":"","City":"STUART","Dist":"0.0","ID":"491306","Lat":36.6465378,"Long":-80.25826,"Name":"PIONEER HEALTH SERVICES OF PATRICK COUNTY,INC","Phone":"(276) 694-3151","State":"VA","Supl":[{"Key":"type_desc","Value":"Critical Access Hospitals"},{"Key":"Srvc_value","Value":"Yes"},{"Key":"HIT_1","Value":""},{"Key":"HIT_2","Value":""},{"Key":"OP_25","Value":""},{"Key":"SM_5","Value":""}],"Zip":"24171"},
        {"Adr1":"200 MEMORIAL DRIVE","Adr2":"","City":"LURAY","Dist":"0.0","ID":"491307","Lat":38.6650467,"Long":-78.46871,"Name":"PAGE MEMORIAL HOSPITAL, INC","Phone":"(540) 743-4561","State":"VA","Supl":[{"Key":"type_desc","Value":"Critical Access Hospitals"},{"Key":"Srvc_value","Value":"Yes"},{"Key":"HIT_1","Value":""},{"Key":"HIT_2","Value":""},{"Key":"OP_25","Value":""},{"Key":"SM_5","Value":""}],"Zip":"22835"}
    ],
"error":"",
"recordcount":83,
"proximityDistance":25,
"starRatingsCount":
    [
        {"Key":"5Star","Value":"3"},
        {"Key":"4Star","Value":"73"},
        {"Key":"3Star","Value":"0"},
        {"Key":"2Star","Value":"7"}
    ]
}