{"ProviderFinderResult":
    [
        {
            "Adr1":"15051 HARMONY HILLS LANE",
            "Adr2":"",
            "City":"ABINGDON",
            "Dist":"0.0",
            "ID":"495409",
            "Lat":36.71,
            "Long":-81.98,
            "Name":"ABINGDON HEALTH CARE LLC",
            "Phone":"(540) 597-6923",
            "State":"VA",
            "Supl":
                [
                    {
                        "Key":"ovrl_str_rtg",
                        "Value":"30"},
                    {
                        "Key":"insp_str_rtg",
                        "Value":"30"},
                    {
                        "Key":"stf_str_rtg",
                        "Value":"30"},
                    {
                        "Key":"qlty_msr_str_rtg",
                        "Value":"20"},
                    {
                        "Key":"rn_staffing_rating",
                        "Value":""},
                    {
                        "Key":"low_perf_prvdr",
                        "Value":"False"},
                    {
                        "Key":"prtcptn_desc",
                        "Value":"Medicare and Medicaid"},
                    {
                        "Key":"is_qis",
                        "Value":""
                    }
                ],
            "Zip":"24212"},
        
        
        
        
        
        
        
        
        
        {
            "Adr1":"12185 GRAPEFIELD ROAD",
            "Adr2":"","City":"BASTIAN",
            "Dist":"0.0",
            "ID":"495191",
            "Lat":37.1794739,
            "Long":-81.1503448,
            "Name":"AFS OF BASTIAN, INC",
            "Phone":"(276) 688-4141",
            "State":"VA",
            "Supl":
                [
                    {"Key":"ovrl_str_rtg","Value":"30"},
                    {"Key":"insp_str_rtg","Value":"40"},
                    {"Key":"stf_str_rtg","Value":"40"},{"Key":"qlty_msr_str_rtg","Value":"10"},{"Key":"rn_staffing_rating","Value":""},{"Key":"low_perf_prvdr","Value":"False"},{"Key":"prtcptn_desc","Value":"Medicare and Medicaid"},{"Key":"is_qis","Value":""}],"Zip":"24314"},{"Adr1":"1540 FOUNDERS PLACE","Adr2":"","City":"CHARLOTTESVILLE","Dist":"0.0","ID":"495420","Lat":38.0293045,"Long":-78.47668,"Name":"ALBEMARLE HEALTH AND REHABILITATION CENTER","Phone":"(540) 776-7577","State":"VA","Supl":[{"Key":"ovrl_str_rtg","Value":"Too New to Rate|1"},{"Key":"insp_str_rtg","Value":"Too New to Rate|1"},{"Key":"stf_str_rtg","Value":"Too New to Rate|1"},{"Key":"qlty_msr_str_rtg","Value":"Too New to Rate|1"},{"Key":"rn_staffing_rating","Value":""},{"Key":"low_perf_prvdr","Value":"False"},{"Key":"prtcptn_desc","Value":"Medicare and Medicaid"},{"Key":"is_qis","Value":""}],"Zip":"22902"},{"Adr1":"8830 VIRGINIA STREET","Adr2":"","City":"AMELIA","Dist":"0.0","ID":"495358","Lat":37.338562,"Long":-77.9826,"Name":"AMELIA NURSING CENTER","Phone":"(804) 561-5611","State":"VA","Supl":[{"Key":"ovrl_str_rtg","Value":"30"},{"Key":"insp_str_rtg","Value":"20"},{"Key":"stf_str_rtg","Value":"40"},{"Key":"qlty_msr_str_rtg","Value":"40"},{"Key":"rn_staffing_rating","Value":""},{"Key":"low_perf_prvdr","Value":"False"},{"Key":"prtcptn_desc","Value":"Medicare and Medicaid"},{"Key":"is_qis","Value":""}],"Zip":"23002"},{"Adr1":"215 EVERGREEN AVE","Adr2":"","City":"APPOMATTOX","Dist":"0.0","ID":"495188","Lat":37.34668,"Long":-78.82524,"Name":"APPOMATTOX HEALTH AND REHABILITATON CENTER","Phone":"(434) 352-7420","State":"VA","Supl":[{"Key":"ovrl_str_rtg","Value":"50"},{"Key":"insp_str_rtg","Value":"50"},{"Key":"stf_str_rtg","Value":"30"},{"Key":"qlty_msr_str_rtg","Value":"40"},{"Key":"rn_staffing_rating","Value":""},{"Key":"low_perf_prvdr","Value":"False"},{"Key":"prtcptn_desc","Value":"Medicare and Medicaid"},{"Key":"is_qis","Value":""}],"Zip":"24522"},{"Adr1":"17405 LANKFORD HIGHWAY","Adr2":"","City":"NELSONIA","Dist":"0.0","ID":"495245","Lat":37.8182755,"Long":-75.5889359,"Name":"ARCADIA NURSING & REHAB CENT","Phone":"(757) 665-5555","State":"VA","Supl":[{"Key":"ovrl_str_rtg","Value":"30"},{"Key":"insp_str_rtg","Value":"20"},{"Key":"stf_str_rtg","Value":"40"},{"Key":"qlty_msr_str_rtg","Value":"30"},{"Key":"rn_staffing_rating","Value":""},{"Key":"low_perf_prvdr","Value":"True"},{"Key":"prtcptn_desc","Value":"Medicare and Medicaid"},{"Key":"is_qis","Value":""}],"Zip":"23414"},{"Adr1":"1739 KIRBY ROAD","Adr2":"","City":"MC LEAN","Dist":"0.0","ID":"495410","Lat":38.92166,"Long":-77.15182,"Name":"ARLEIGH BURKE PAVILION","Phone":"(703) 506-6900","State":"VA","Supl":[{"Key":"ovrl_str_rtg","Value":"50"},{"Key":"insp_str_rtg","Value":"40"},{"Key":"stf_str_rtg","Value":"40"},{"Key":"qlty_msr_str_rtg","Value":"50"},{"Key":"rn_staffing_rating","Value":""},{"Key":"low_perf_prvdr","Value":"False"},{"Key":"prtcptn_desc","Value":"Medicare"},{"Key":"is_qis","Value":""}],"Zip":"22101"},{"Adr1":"21160 MAPLE BRANCH TERRACE","Adr2":"","City":"ASHBURN","Dist":"0.0","ID":"495416","Lat":39.04376,"Long":-77.48744,"Name":"ASHBY PONDS INC","Phone":"(717) 526-6321","State":"VA","Supl":[{"Key":"ovrl_str_rtg","Value":"50"},{"Key":"insp_str_rtg","Value":"30"},{"Key":"stf_str_rtg","Value":"50"},{"Key":"qlty_msr_str_rtg","Value":"50"},{"Key":"rn_staffing_rating","Value":""},{"Key":"low_perf_prvdr","Value":"False"},{"Key":"prtcptn_desc","Value":"Medicare"},{"Key":"is_qis","Value":""}],"Zip":"20147"},{"Adr1":"906 THOMPSON STREET","Adr2":"","City":"ASHLAND","Dist":"0.0","ID":"495362","Lat":37.7590332,"Long":-77.47998,"Name":"ASHLAND NURSING AND REHABILITATION","Phone":"(804) 798-3291","State":"VA","Supl":[{"Key":"ovrl_str_rtg","Value":"10"},{"Key":"insp_str_rtg","Value":"10"},{"Key":"stf_str_rtg","Value":"10"},{"Key":"qlty_msr_str_rtg","Value":"10"},{"Key":"rn_staffing_rating","Value":""},{"Key":"low_perf_prvdr","Value":"False"},{"Key":"prtcptn_desc","Value":"Medicare and Medicaid"},{"Key":"is_qis","Value":""}],"Zip":"23005"},{"Adr1":"78 MEDICAL CENTER DRIVE","Adr2":"","City":"FISHERSVILLE","Dist":"0.0","ID":"495214","Lat":38.09415,"Long":-78.9862747,"Name":"AUGUSTA MEDICAL CTR SKILLED CA","Phone":"(540) 332-4020","State":"VA","Supl":[{"Key":"ovrl_str_rtg","Value":"40"},{"Key":"insp_str_rtg","Value":"50"},{"Key":"stf_str_rtg","Value":"Not Available|2"},{"Key":"qlty_msr_str_rtg","Value":"10"},{"Key":"rn_staffing_rating","Value":""},{"Key":"low_perf_prvdr","Value":"False"},{"Key":"prtcptn_desc","Value":"Medicare"},{"Key":"is_qis","Value":""}],"Zip":"22939"},{"Adr1":"83 CROSSROADS LANE","Adr2":"","City":"FISHERSVILLE","Dist":"0.0","ID":"495336","Lat":38.0990219,"Long":-78.96919,"Name":"AUGUSTA NURSING & REHAB CENTER","Phone":"(540) 885-8424","State":"VA","Supl":[{"Key":"ovrl_str_rtg","Value":"20"},{"Key":"insp_str_rtg","Value":"20"},{"Key":"stf_str_rtg","Value":"30"},{"Key":"qlty_msr_str_rtg","Value":"20"},{"Key":"rn_staffing_rating","Value":""},{"Key":"low_perf_prvdr","Value":"False"},{"Key":"prtcptn_desc","Value":"Medicare and Medicaid"},{"Key":"is_qis","Value":""}],"Zip":"22939"},{"Adr1":"1317 LOLA AVE","Adr2":"","City":"ALTAVISTA","Dist":"0.0","ID":"495196","Lat":37.12368,"Long":-79.28778,"Name":"AUTUMN CARE OF ALTAVISTA","Phone":"(434) 369-6651","State":"VA","Supl":[{"Key":"ovrl_str_rtg","Value":"40"},{"Key":"insp_str_rtg","Value":"40"},{"Key":"stf_str_rtg","Value":"20"},{"Key":"qlty_msr_str_rtg","Value":"30"},{"Key":"rn_staffing_rating","Value":""},{"Key":"low_perf_prvdr","Value":"False"},{"Key":"prtcptn_desc","Value":"Medicare and Medicaid"},{"Key":"is_qis","Value":""}],"Zip":"24517"},{"Adr1":"715 ARGYLL ST","Adr2":"","City":"CHESAPEAKE","Dist":"0.0","ID":"495256","Lat":36.7405777,"Long":-76.19979,"Name":"AUTUMN CARE OF CHESAPEAKE","Phone":"(757) 547-4528","State":"VA","Supl":[{"Key":"ovrl_str_rtg","Value":"10"},{"Key":"insp_str_rtg","Value":"10"},{"Key":"stf_str_rtg","Value":"30"},{"Key":"qlty_msr_str_rtg","Value":"20"},{"Key":"rn_staffing_rating","Value":""},{"Key":"low_perf_prvdr","Value":"False"},{"Key":"prtcptn_desc","Value":"Medicare and Medicaid"},{"Key":"is_qis","Value":""}],"Zip":"23320"},{"Adr1":"NUMBER ONE AUTUMN COURT","Adr2":"","City":"MADISON","Dist":"0.0","ID":"495244","Lat":38.3791771,"Long":-78.25597,"Name":"AUTUMN CARE OF MADISON","Phone":"(540) 948-3054","State":"VA","Supl":[{"Key":"ovrl_str_rtg","Value":"40"},{"Key":"insp_str_rtg","Value":"30"},{"Key":"stf_str_rtg","Value":"40"},{"Key":"qlty_msr_str_rtg","Value":"30"},{"Key":"rn_staffing_rating","Value":""},{"Key":"low_perf_prvdr","Value":"False"},{"Key":"prtcptn_desc","Value":"Medicare and Medicaid"},{"Key":"is_qis","Value":""}],"Zip":"22727"},{"Adr1":"7600 AUTUMN PARKWAY","Adr2":"","City":"MECHANICSVILLE","Dist":"0.0","ID":"495413","Lat":37.6511154,"Long":-77.41213,"Name":"AUTUMN CARE OF MECHANICSVILLE","Phone":"(804) 730-0009","State":"VA","Supl":[{"Key":"ovrl_str_rtg","Value":"30"},{"Key":"insp_str_rtg","Value":"20"},{"Key":"stf_str_rtg","Value":"30"},{"Key":"qlty_msr_str_rtg","Value":"50"},{"Key":"rn_staffing_rating","Value":""},{"Key":"low_perf_prvdr","Value":"False"},{"Key":"prtcptn_desc","Value":"Medicare and Medicaid"},{"Key":"is_qis","Value":""}],"Zip":"23116"},{"Adr1":"1401 HALSTEAD AVENUE","Adr2":"","City":"NORFOLK","Dist":"0.0","ID":"495253","Lat":36.8680458,"Long":-76.22443,"Name":"AUTUMN CARE OF NORFOLK","Phone":"(757) 857-0481","State":"VA","Supl":[{"Key":"ovrl_str_rtg","Value":"20"},{"Key":"insp_str_rtg","Value":"20"},{"Key":"stf_str_rtg","Value":"20"},{"Key":"qlty_msr_str_rtg","Value":"20"},{"Key":"rn_staffing_rating","Value":""},{"Key":"low_perf_prvdr","Value":"False"},{"Key":"prtcptn_desc","Value":"Medicare and Medicaid"},{"Key":"is_qis","Value":""}],"Zip":"23502"},{"Adr1":"3610 WINCHESTER DR","Adr2":"","City":"PORTSMOUTH","Dist":"0.0","ID":"495194","Lat":36.8248177,"Long":-76.34652,"Name":"AUTUMN CARE OF PORTSMOUTH","Phone":"(757) 397-0725","State":"VA","Supl":[{"Key":"ovrl_str_rtg","Value":"30"},{"Key":"insp_str_rtg","Value":"30"},{"Key":"stf_str_rtg","Value":"30"},{"Key":"qlty_msr_str_rtg","Value":"30"},{"Key":"rn_staffing_rating","Value":""},{"Key":"low_perf_prvdr","Value":"False"},{"Key":"prtcptn_desc","Value":"Medicare and Medicaid"},{"Key":"is_qis","Value":""}],"Zip":"23707"},{"Adr1":"2580 PRUDEN BOULEVARD","Adr2":"","City":"SUFFOLK","Dist":"0.0","ID":"495258","Lat":36.76572,"Long":-76.59793,"Name":"AUTUMN CARE OF SUFFOLK","Phone":"(757) 934-2363","State":"VA","Supl":[{"Key":"ovrl_str_rtg","Value":"10"},{"Key":"insp_str_rtg","Value":"10"},{"Key":"stf_str_rtg","Value":"30"},{"Key":"qlty_msr_str_rtg","Value":"20"},{"Key":"rn_staffing_rating","Value":""},{"Key":"low_perf_prvdr","Value":"False"},{"Key":"prtcptn_desc","Value":"Medicare and Medicaid"},{"Key":"is_qis","Value":""}],"Zip":"23434"},{"Adr1":"94 SOUTH AVENUE","Adr2":"","City":"HARRISONBURG","Dist":"0.0","ID":"495146","Lat":38.43577,"Long":-78.8853149,"Name":"AVANTE AT HARRISONBURG","Phone":"(540) 433-2791","State":"VA","Supl":[{"Key":"ovrl_str_rtg","Value":"10"},{"Key":"insp_str_rtg","Value":"10"},{"Key":"stf_str_rtg","Value":"10"},{"Key":"qlty_msr_str_rtg","Value":"20"},{"Key":"rn_staffing_rating","Value":""},{"Key":"low_perf_prvdr","Value":"False"},{"Key":"prtcptn_desc","Value":"Medicare and Medicaid"},{"Key":"is_qis","Value":""}],"Zip":"22801"},{"Adr1":"2081 LANGHORNE ROAD","Adr2":"","City":"LYNCHBURG","Dist":"0.0","ID":"495151","Lat":37.4121742,"Long":-79.18248,"Name":"AVANTE AT LYNCHBURG","Phone":"(434) 846-8437","State":"VA","Supl":[{"Key":"ovrl_str_rtg","Value":"30"},{"Key":"insp_str_rtg","Value":"20"},{"Key":"stf_str_rtg","Value":"20"},{"Key":"qlty_msr_str_rtg","Value":"50"},{"Key":"rn_staffing_rating","Value":""},{"Key":"low_perf_prvdr","Value":"False"},{"Key":"prtcptn_desc","Value":"Medicare and Medicaid"},{"Key":"is_qis","Value":""}],"Zip":"24501"},{"Adr1":"324 KING GEORGE AVE SW","Adr2":"","City":"ROANOKE","Dist":"0.0","ID":"495156","Lat":37.2592545,"Long":-79.94816,"Name":"AVANTE AT ROANOKE","Phone":"(540) 345-8139","State":"VA","Supl":[{"Key":"ovrl_str_rtg","Value":"20"},{"Key":"insp_str_rtg","Value":"20"},{"Key":"stf_str_rtg","Value":"20"},{"Key":"qlty_msr_str_rtg","Value":"30"},{"Key":"rn_staffing_rating","Value":""},{"Key":"low_perf_prvdr","Value":"False"},{"Key":"prtcptn_desc","Value":"Medicare and Medicaid"},{"Key":"is_qis","Value":""}],"Zip":"24016"},{"Adr1":"1221 ROSSER AVE","Adr2":"","City":"WAYNESBORO","Dist":"0.0","ID":"495147","Lat":38.0682449,"Long":-78.92673,"Name":"AVANTE AT WAYNESBORO","Phone":"(540) 949-7191","State":"VA","Supl":[{"Key":"ovrl_str_rtg","Value":"40"},{"Key":"insp_str_rtg","Value":"40"},{"Key":"stf_str_rtg","Value":"30"},{"Key":"qlty_msr_str_rtg","Value":"30"},{"Key":"rn_staffing_rating","Value":""},{"Key":"low_perf_prvdr","Value":"False"},{"Key":"prtcptn_desc","Value":"Medicare and Medicaid"},{"Key":"is_qis","Value":""}],"Zip":"22980"},{"Adr1":"1004 INDEPENDENCE BLVD","Adr2":"","City":"VIRGINIA BEACH","Dist":"0.0","ID":"495213","Lat":36.8661156,"Long":-76.13296,"Name":"BAYSIDE HEALTH & REHABILITATION CENTER","Phone":"(757) 464-4058","State":"VA","Supl":[{"Key":"ovrl_str_rtg","Value":"30"},{"Key":"insp_str_rtg","Value":"30"},{"Key":"stf_str_rtg","Value":"30"},{"Key":"qlty_msr_str_rtg","Value":"30"},{"Key":"rn_staffing_rating","Value":""},{"Key":"low_perf_prvdr","Value":"False"},{"Key":"prtcptn_desc","Value":"Medicare and Medicaid"},{"Key":"is_qis","Value":""}],"Zip":"23455"},{"Adr1":"340 LYNN SHORES DRIVE","Adr2":"","City":"VIRGINIA BEACH","Dist":"0.0","ID":"495150","Lat":36.84158,"Long":-76.10841,"Name":"BEACON SHORES NURSING & REHABILITATION","Phone":"(757) 340-6611","State":"VA","Supl":[{"Key":"ovrl_str_rtg","Value":"10"},{"Key":"insp_str_rtg","Value":"10"},{"Key":"stf_str_rtg","Value":"30"},{"Key":"qlty_msr_str_rtg","Value":"40"},{"Key":"rn_staffing_rating","Value":""},{"Key":"low_perf_prvdr","Value":"False"},{"Key":"prtcptn_desc","Value":"Medicare and Medicaid"},{"Key":"is_qis","Value":""}],"Zip":"23452"},{"Adr1":"200 HIOAKS ROAD","Adr2":"","City":"RICHMOND","Dist":"0.0","ID":"495260","Lat":37.5056152,"Long":-77.52555,"Name":"BEAUFONT HEALTH AND REHABILITATION CENTER","Phone":"(804) 272-2918","State":"VA","Supl":[{"Key":"ovrl_str_rtg","Value":"20"},{"Key":"insp_str_rtg","Value":"10"},{"Key":"stf_str_rtg","Value":"40"},{"Key":"qlty_msr_str_rtg","Value":"50"},{"Key":"rn_staffing_rating","Value":""},{"Key":"low_perf_prvdr","Value":"False"},{"Key":"prtcptn_desc","Value":"Medicare and Medicaid"},{"Key":"is_qis","Value":""}],"Zip":"23225"},{"Adr1":"1229 COUNTY FARM ROAD","Adr2":"","City":"BEDFORD","Dist":"0.0","ID":"49E004","Lat":37.305294,"Long":-79.5019,"Name":"BEDFORD CO NURSING HOME","Phone":"(540) 586-7658","State":"VA","Supl":[{"Key":"ovrl_str_rtg","Value":"50"},{"Key":"insp_str_rtg","Value":"40"},{"Key":"stf_str_rtg","Value":"20"},{"Key":"qlty_msr_str_rtg","Value":"50"},{"Key":"rn_staffing_rating","Value":""},{"Key":"low_perf_prvdr","Value":"False"},{"Key":"prtcptn_desc","Value":"Medicaid"},{"Key":"is_qis","Value":""}],"Zip":"24523"},{"Adr1":"9160  BELVOIR WOODS PKWY","Adr2":"","City":"FORT BELVOIR","Dist":"0.0","ID":"495197","Lat":38.7188721,"Long":-77.15427,"Name":"BELVOIR WOODS HEALTH CARE CENTER AT THE FAIRFAX","Phone":"(703) 799-1333","State":"VA","Supl":[{"Key":"ovrl_str_rtg","Value":"50"},{"Key":"insp_str_rtg","Value":"40"},{"Key":"stf_str_rtg","Value":"30"},{"Key":"qlty_msr_str_rtg","Value":"50"},{"Key":"rn_staffing_rating","Value":""},{"Key":"low_perf_prvdr","Value":"False"},{"Key":"prtcptn_desc","Value":"Medicare and Medicaid"},{"Key":"is_qis","Value":""}],"Zip":"22060"},{"Adr1":"705 CLEARVIEW DRIVE","Adr2":"","City":"VINTON","Dist":"0.0","ID":"495293","Lat":37.26985,"Long":-79.88542,"Name":"BERKSHIRE HEALTH & REHABILITATION CENTER","Phone":"(540) 982-6691","State":"VA","Supl":[{"Key":"ovrl_str_rtg","Value":"50"},{"Key":"insp_str_rtg","Value":"50"},{"Key":"stf_str_rtg","Value":"30"},{"Key":"qlty_msr_str_rtg","Value":"30"},{"Key":"rn_staffing_rating","Value":""},{"Key":"low_perf_prvdr","Value":"False"},{"Key":"prtcptn_desc","Value":"Medicare and Medicaid"},{"Key":"is_qis","Value":""}],"Zip":"24179"},{"Adr1":"621 BERRY HILL ROAD","Adr2":"","City":"SOUTH BOSTON","Dist":"0.0","ID":"495318","Lat":36.69861,"Long":-78.92025,"Name":"BERRY HILL NURSING HOME","Phone":"(434) 572-8901","State":"VA","Supl":[{"Key":"ovrl_str_rtg","Value":"30"},{"Key":"insp_str_rtg","Value":"20"},{"Key":"stf_str_rtg","Value":"40"},{"Key":"qlty_msr_str_rtg","Value":"30"},{"Key":"rn_staffing_rating","Value":""},{"Key":"low_perf_prvdr","Value":"False"},{"Key":"prtcptn_desc","Value":"Medicare and Medicaid"},{"Key":"is_qis","Value":""}],"Zip":"24592"},{"Adr1":"6401 AUBURN DR","Adr2":"","City":"VIRGINIA BEACH","Dist":"0.0","ID":"495186","Lat":36.8067245,"Long":-76.216,"Name":"BETH SHOLOM HOME OF EASTERN VI","Phone":"(757) 420-2512","State":"VA","Supl":[{"Key":"ovrl_str_rtg","Value":"30"},{"Key":"insp_str_rtg","Value":"30"},{"Key":"stf_str_rtg","Value":"30"},{"Key":"qlty_msr_str_rtg","Value":"40"},{"Key":"rn_staffing_rating","Value":""},{"Key":"low_perf_prvdr","Value":"False"},{"Key":"prtcptn_desc","Value":"Medicare and Medicaid"},{"Key":"is_qis","Value":""}],"Zip":"23464"},{"Adr1":"1600 JOHN ROLFE PARKWAY","Adr2":"","City":"RICHMOND","Dist":"0.0","ID":"495291","Lat":37.6218948,"Long":-77.6256256,"Name":"BETH SHOLOM HOME OF VIRGINIA","Phone":"(804) 750-2183","State":"VA","Supl":[{"Key":"ovrl_str_rtg","Value":"30"},{"Key":"insp_str_rtg","Value":"20"},{"Key":"stf_str_rtg","Value":"40"},{"Key":"qlty_msr_str_rtg","Value":"40"},{"Key":"rn_staffing_rating","Value":""},{"Key":"low_perf_prvdr","Value":"False"},{"Key":"prtcptn_desc","Value":"Medicare and Medicaid"},{"Key":"is_qis","Value":""}],"Zip":"23233"},{"Adr1":"8605 CENTREVILLE ROAD","Adr2":"","City":"MANASSAS","Dist":"0.0","ID":"495390","Lat":38.76519,"Long":-77.4539,"Name":"BIRMINGHAM GREEN","Phone":"(703) 257-0935","State":"VA","Supl":[{"Key":"ovrl_str_rtg","Value":"50"},{"Key":"insp_str_rtg","Value":"30"},{"Key":"stf_str_rtg","Value":"40"},{"Key":"qlty_msr_str_rtg","Value":"50"},{"Key":"rn_staffing_rating","Value":""},{"Key":"low_perf_prvdr","Value":"False"},{"Key":"prtcptn_desc","Value":"Medicare and Medicaid"},{"Key":"is_qis","Value":""}],"Zip":"20110"},{"Adr1":"105 LANDMARK DRIVE","Adr2":"","City":"STUART","Dist":"0.0","ID":"495306","Lat":36.6387749,"Long":-80.25851,"Name":"BLUE RIDGE NURSING CENTER INC","Phone":"(276) 694-7161","State":"VA","Supl":[{"Key":"ovrl_str_rtg","Value":"40"},{"Key":"insp_str_rtg","Value":"40"},{"Key":"stf_str_rtg","Value":"20"},{"Key":"qlty_msr_str_rtg","Value":"30"},{"Key":"rn_staffing_rating","Value":""},{"Key":"low_perf_prvdr","Value":"False"},{"Key":"prtcptn_desc","Value":"Medicare and Medicaid"},{"Key":"is_qis","Value":""}],"Zip":"24171"},{"Adr1":"300 BLUE RIDGE  STREET","Adr2":"","City":"MARTINSVILLE","Dist":"0.0","ID":"495281","Lat":36.6898766,"Long":-79.8436,"Name":"BLUE RIDGE REHAB CENT","Phone":"(276) 638-8701","State":"VA","Supl":[{"Key":"ovrl_str_rtg","Value":"10"},{"Key":"insp_str_rtg","Value":"20"},{"Key":"stf_str_rtg","Value":"10"},{"Key":"qlty_msr_str_rtg","Value":"10"},{"Key":"rn_staffing_rating","Value":""},{"Key":"low_perf_prvdr","Value":"False"},{"Key":"prtcptn_desc","Value":"Medicare and Medicaid"},{"Key":"is_qis","Value":""}],"Zip":"24112"},{"Adr1":"150 KINGSLEY LANE","Adr2":"","City":"NORFOLK","Dist":"0.0","ID":"495346","Lat":36.89933,"Long":-76.28156,"Name":"BON SECOURS DEPAUL,TCC","Phone":"(757) 889-5020","State":"VA","Supl":[{"Key":"ovrl_str_rtg","Value":"50"},{"Key":"insp_str_rtg","Value":"50"},{"Key":"stf_str_rtg","Value":"50"},{"Key":"qlty_msr_str_rtg","Value":"50"},{"Key":"rn_staffing_rating","Value":""},{"Key":"low_perf_prvdr","Value":"False"},{"Key":"prtcptn_desc","Value":"Medicare and Medicaid"},{"Key":"is_qis","Value":""}],"Zip":"23505"},{"Adr1":"4775 BRIDGE ROAD","Adr2":"","City":"SUFFOLK","Dist":"0.0","ID":"495206","Lat":36.8635254,"Long":-76.42702,"Name":"BON SECOURS-MARYVIEW NURSING C","Phone":"(757) 686-0488","State":"VA","Supl":[{"Key":"ovrl_str_rtg","Value":"20"},{"Key":"insp_str_rtg","Value":"10"},{"Key":"stf_str_rtg","Value":"30"},{"Key":"qlty_msr_str_rtg","Value":"50"},{"Key":"rn_staffing_rating","Value":""},{"Key":"low_perf_prvdr","Value":"False"},{"Key":"prtcptn_desc","Value":"Medicare and Medicaid"},{"Key":"is_qis","Value":""}],"Zip":"23435"},{"Adr1":"120 ANDERSON AVENUE","Adr2":"","City":"BOWLING GREEN","Dist":"0.0","ID":"495297","Lat":38.04782,"Long":-77.35637,"Name":"BOWLING GREEN HEALTH & REHABILITATION CENTER","Phone":"(804) 633-4839","State":"VA","Supl":[{"Key":"ovrl_str_rtg","Value":"30"},{"Key":"insp_str_rtg","Value":"30"},{"Key":"stf_str_rtg","Value":"30"},{"Key":"qlty_msr_str_rtg","Value":"30"},{"Key":"rn_staffing_rating","Value":""},{"Key":"low_perf_prvdr","Value":"False"},{"Key":"prtcptn_desc","Value":"Medicare and Medicaid"},{"Key":"is_qis","Value":""}],"Zip":"22427"},{"Adr1":"3837 BRANDON AVENUE","Adr2":"","City":"ROANOKE","Dist":"0.0","ID":"495373","Lat":37.2643051,"Long":-80.01378,"Name":"BRANDON OAKS NURSING AND REHABILITATION CENTER","Phone":"(540) 776-2616","State":"VA","Supl":[{"Key":"ovrl_str_rtg","Value":"40"},{"Key":"insp_str_rtg","Value":"40"},{"Key":"stf_str_rtg","Value":"40"},{"Key":"qlty_msr_str_rtg","Value":"30"},{"Key":"rn_staffing_rating","Value":""},{"Key":"low_perf_prvdr","Value":"False"},{"Key":"prtcptn_desc","Value":"Medicare and Medicaid"},{"Key":"is_qis","Value":""}],"Zip":"24018"},{"Adr1":"188 OLD FINCASTLE ROAD","Adr2":"","City":"FINCASTLE","Dist":"0.0","ID":"495218","Lat":37.5222626,"Long":-79.8799438,"Name":"BRIAN CENTER HEALTH AND REHABILITATION","Phone":"(540) 473-2288","State":"VA","Supl":[{"Key":"ovrl_str_rtg","Value":"10"},{"Key":"insp_str_rtg","Value":"10"},{"Key":"stf_str_rtg","Value":"30"},{"Key":"qlty_msr_str_rtg","Value":"20"},{"Key":"rn_staffing_rating","Value":""},{"Key":"low_perf_prvdr","Value":"False"},{"Key":"prtcptn_desc","Value":"Medicare and Medicaid"},{"Key":"is_qis","Value":""}],"Zip":"24090"},{"Adr1":"100 ALLEGHANY REGIONAL HOSPITAL LANE","Adr2":"","City":"LOW MOOR","Dist":"0.0","ID":"495221","Lat":37.7872162,"Long":-79.881485,"Name":"BRIAN CENTER REHABILITATION AND NURSING CARE","Phone":"(540) 862-3610","State":"VA","Supl":[{"Key":"ovrl_str_rtg","Value":"50"},{"Key":"insp_str_rtg","Value":"50"},{"Key":"stf_str_rtg","Value":"40"},{"Key":"qlty_msr_str_rtg","Value":"40"},{"Key":"rn_staffing_rating","Value":""},{"Key":"low_perf_prvdr","Value":"False"},{"Key":"prtcptn_desc","Value":"Medicare and Medicaid"},{"Key":"is_qis","Value":""}],"Zip":"24457"},{"Adr1":"302 NORTH SECOND STREET","Adr2":"","City":"BRIDGEWATER","Dist":"0.0","ID":"495370","Lat":38.3820724,"Long":-78.97669,"Name":"BRIDGEWATER HOME , INC.","Phone":"(540) 828-2531","State":"VA","Supl":[{"Key":"ovrl_str_rtg","Value":"30"},{"Key":"insp_str_rtg","Value":"20"},{"Key":"stf_str_rtg","Value":"50"},{"Key":"qlty_msr_str_rtg","Value":"40"},{"Key":"rn_staffing_rating","Value":""},{"Key":"low_perf_prvdr","Value":"False"},{"Key":"prtcptn_desc","Value":"Medicare and Medicaid"},{"Key":"is_qis","Value":""}],"Zip":"22812"},{"Adr1":"614 HASTINGS LANE","Adr2":"","City":"WARRENTON","Dist":"0.0","ID":"495267","Lat":38.73294,"Long":-77.79843,"Name":"BROOKSIDE REHAB & NURSING CENTER","Phone":"(540) 347-4770","State":"VA","Supl":[{"Key":"ovrl_str_rtg","Value":"20"},{"Key":"insp_str_rtg","Value":"20"},{"Key":"stf_str_rtg","Value":"30"},{"Key":"qlty_msr_str_rtg","Value":"20"},{"Key":"rn_staffing_rating","Value":""},{"Key":"low_perf_prvdr","Value":"False"},{"Key":"prtcptn_desc","Value":"Medicare and Medicaid"},{"Key":"is_qis","Value":""}],"Zip":"20186"},{"Adr1":"9640 BURKE LAKE ROAD","Adr2":"","City":"BURKE","Dist":"0.0","ID":"495248","Lat":38.7826042,"Long":-77.2834,"Name":"BURKE HEALTH AND REHABILITATION CENTER","Phone":"(703) 425-9765","State":"VA","Supl":[{"Key":"ovrl_str_rtg","Value":"30"},{"Key":"insp_str_rtg","Value":"20"},{"Key":"stf_str_rtg","Value":"40"},{"Key":"qlty_msr_str_rtg","Value":"40"},{"Key":"rn_staffing_rating","Value":""},{"Key":"low_perf_prvdr","Value":"False"},{"Key":"prtcptn_desc","Value":"Medicare and Medicaid"},{"Key":"is_qis","Value":""}],"Zip":"22015"},{"Adr1":"6106 HEALTH CENTER LANE","Adr2":"","City":"FREDERICKSBURG","Dist":"0.0","ID":"495396","Lat":38.2886848,"Long":-77.54589,"Name":"CARRIAGE HILL HEALTH AND REHAB CENTER","Phone":"(540) 785-1120","State":"VA","Supl":[{"Key":"ovrl_str_rtg","Value":"20"},{"Key":"insp_str_rtg","Value":"20"},{"Key":"stf_str_rtg","Value":"30"},{"Key":"qlty_msr_str_rtg","Value":"30"},{"Key":"rn_staffing_rating","Value":""},{"Key":"low_perf_prvdr","Value":"False"},{"Key":"prtcptn_desc","Value":"Medicare and Medicaid"},{"Key":"is_qis","Value":""}],"Zip":"22407"},{"Adr1":"290 COMMONS PARKWAY","Adr2":"","City":"DALEVILLE","Dist":"0.0","ID":"495386","Lat":37.3945923,"Long":-79.91178,"Name":"CARRINGTON PLACE AT BOTETOURT COMMONS","Phone":"(540) 966-0056","State":"VA","Supl":[{"Key":"ovrl_str_rtg","Value":"50"},{"Key":"insp_str_rtg","Value":"50"},{"Key":"stf_str_rtg","Value":"20"},{"Key":"qlty_msr_str_rtg","Value":"30"},{"Key":"rn_staffing_rating","Value":""},{"Key":"low_perf_prvdr","Value":"False"},{"Key":"prtcptn_desc","Value":"Medicare and Medicaid"},{"Key":"is_qis","Value":""}],"Zip":"24083"},{"Adr1":"514 NORTH MAIN STREET","Adr2":"","City":"RURAL RETREAT","Dist":"0.0","ID":"495417","Lat":36.900795,"Long":-81.274086,"Name":"CARRINGTON PLACE AT RURAL RETREAT","Phone":"(276) 613-4700","State":"VA","Supl":[{"Key":"ovrl_str_rtg","Value":"10"},{"Key":"insp_str_rtg","Value":"20"},{"Key":"stf_str_rtg","Value":"20"},{"Key":"qlty_msr_str_rtg","Value":"10"},{"Key":"rn_staffing_rating","Value":""},{"Key":"low_perf_prvdr","Value":"False"},{"Key":"prtcptn_desc","Value":"Medicare and Medicaid"},{"Key":"is_qis","Value":""}],"Zip":"24368"},{"Adr1":"990 HOLSTON RD","Adr2":"","City":"WYTHEVILLE","Dist":"0.0","ID":"495349","Lat":36.9655762,"Long":-81.08764,"Name":"CARRINGTON PLACE AT WYTHEVILLE - BIRDMONT CENTER","Phone":"(276) 228-5595","State":"VA","Supl":[{"Key":"ovrl_str_rtg","Value":"10"},{"Key":"insp_str_rtg","Value":"20"},{"Key":"stf_str_rtg","Value":"30"},{"Key":"qlty_msr_str_rtg","Value":"10"},{"Key":"rn_staffing_rating","Value":""},{"Key":"low_perf_prvdr","Value":"False"},{"Key":"prtcptn_desc","Value":"Medicare and Medicaid"},{"Key":"is_qis","Value":""}],"Zip":"24382"},{"Adr1":"1017 GEORGE WASHINGTON HIGHWAY NORTH","Adr2":"","City":"CHESAPEAKE","Dist":"0.0","ID":"495330","Lat":36.77776,"Long":-76.33843,"Name":"CARRINGTON PLACE OF CHESAPEAKE","Phone":"(757) 485-5500","State":"VA","Supl":[{"Key":"ovrl_str_rtg","Value":"10"},{"Key":"insp_str_rtg","Value":"10"},{"Key":"stf_str_rtg","Value":"20"},{"Key":"qlty_msr_str_rtg","Value":"20"},{"Key":"rn_staffing_rating","Value":""},{"Key":"low_perf_prvdr","Value":"False"},{"Key":"prtcptn_desc","Value":"Medicare and Medicaid"},{"Key":"is_qis","Value":""}],"Zip":"23323"},{"Adr1":"1150 MARSH STREET","Adr2":"","City":"TAPPAHANNOCK","Dist":"0.0","ID":"495328","Lat":37.9215164,"Long":-76.8712845,"Name":"CARRINGTON PLACE OF TAPPAHANNOCK","Phone":"(804) 443-4308","State":"VA","Supl":[{"Key":"ovrl_str_rtg","Value":"50"},{"Key":"insp_str_rtg","Value":"40"},{"Key":"stf_str_rtg","Value":"20"},{"Key":"qlty_msr_str_rtg","Value":"50"},{"Key":"rn_staffing_rating","Value":""},{"Key":"low_perf_prvdr","Value":"False"},{"Key":"prtcptn_desc","Value":"Medicare and Medicaid"},{"Key":"is_qis","Value":""}],"Zip":"22560"},{"Adr1":"PO BOX 1098","Adr2":"","City":"LYNCHBURG","Dist":"0.0","ID":"495106","Lat":37.41,"Long":-79.14,"Name":"CENTRAL VIRGINIA TRAINING CENT","Phone":"(434) 947-6960","State":"VA","Supl":[{"Key":"ovrl_str_rtg","Value":"50"},{"Key":"insp_str_rtg","Value":"50"},{"Key":"stf_str_rtg","Value":"Not Available|2"},{"Key":"qlty_msr_str_rtg","Value":"50"},{"Key":"rn_staffing_rating","Value":""},{"Key":"low_perf_prvdr","Value":"False"},{"Key":"prtcptn_desc","Value":"Medicare and Medicaid"},{"Key":"is_qis","Value":""}],"Zip":"24505"},{"Adr1":"505 WEST RIO ROAD","Adr2":"","City":"CHARLOTTESVILLE","Dist":"0.0","ID":"495178","Lat":38.0840378,"Long":-78.48242,"Name":"CHARLOTTESVILLE HEALTH & REHABILITATION CENTER","Phone":"(434) 978-7015","State":"VA","Supl":[{"Key":"ovrl_str_rtg","Value":"10"},{"Key":"insp_str_rtg","Value":"10"},{"Key":"stf_str_rtg","Value":"30"},{"Key":"qlty_msr_str_rtg","Value":"10"},{"Key":"rn_staffing_rating","Value":""},{"Key":"low_perf_prvdr","Value":"False"},{"Key":"prtcptn_desc","Value":"Medicare and Medicaid"},{"Key":"is_qis","Value":""}],"Zip":"22901"},{"Adr1":"5539 HIGHWAY FORTY SEVEN","Adr2":"","City":"CHASE CITY","Dist":"0.0","ID":"495380","Lat":36.81643,"Long":-78.46828,"Name":"CHASE CITY HEALTH AND REHAB CENTER","Phone":"(434) 372-8885","State":"VA","Supl":[{"Key":"ovrl_str_rtg","Value":"30"},{"Key":"insp_str_rtg","Value":"30"},{"Key":"stf_str_rtg","Value":"20"},{"Key":"qlty_msr_str_rtg","Value":"20"},{"Key":"rn_staffing_rating","Value":""},{"Key":"low_perf_prvdr","Value":"False"},{"Key":"prtcptn_desc","Value":"Medicare and Medicaid"},{"Key":"is_qis","Value":""}],"Zip":"23924"},{"Adr1":"100 RORER STREET","Adr2":"","City":"CHATHAM","Dist":"0.0","ID":"495399","Lat":36.8066,"Long":-79.3953857,"Name":"CHATHAM HEALTH & REHABILITATION CENTER","Phone":"(434) 432-0471","State":"VA","Supl":[{"Key":"ovrl_str_rtg","Value":"20"},{"Key":"insp_str_rtg","Value":"20"},{"Key":"stf_str_rtg","Value":"20"},{"Key":"qlty_msr_str_rtg","Value":"40"},{"Key":"rn_staffing_rating","Value":""},{"Key":"low_perf_prvdr","Value":"False"},{"Key":"prtcptn_desc","Value":"Medicare and Medicaid"},{"Key":"is_qis","Value":""}],"Zip":"24531"},{"Adr1":"3710 LEE HIGHWAY","Adr2":"","City":"ARLINGTON","Dist":"0.0","ID":"495121","Lat":38.89663,"Long":-77.10654,"Name":"CHERRYDALE HEALTH AND REHABILITATION CENTER","Phone":"(703) 243-7640","State":"VA","Supl":[{"Key":"ovrl_str_rtg","Value":"20"},{"Key":"insp_str_rtg","Value":"20"},{"Key":"stf_str_rtg","Value":"30"},{"Key":"qlty_msr_str_rtg","Value":"40"},{"Key":"rn_staffing_rating","Value":""},{"Key":"low_perf_prvdr","Value":"False"},{"Key":"prtcptn_desc","Value":"Medicare and Medicaid"},{"Key":"is_qis","Value":""}],"Zip":"22207"},{"Adr1":"688 KINGSBOROUGH SQUARE","Adr2":"","City":"CHESAPEAKE","Dist":"0.0","ID":"495108","Lat":36.7432823,"Long":-76.24703,"Name":"CHESAPEAKE HEALTH AND REHABILITATION CENTER","Phone":"(757) 547-9111","State":"VA","Supl":[{"Key":"ovrl_str_rtg","Value":"20"},{"Key":"insp_str_rtg","Value":"20"},{"Key":"stf_str_rtg","Value":"30"},{"Key":"qlty_msr_str_rtg","Value":"30"},{"Key":"rn_staffing_rating","Value":""},{"Key":"low_perf_prvdr","Value":"False"},{"Key":"prtcptn_desc","Value":"Medicare and Medicaid"},{"Key":"is_qis","Value":""}],"Zip":"23320"},{"Adr1":"2924 BROOK RD","Adr2":"","City":"RICHMOND","Dist":"0.0","ID":"49A022","Lat":37.5709038,"Long":-77.45085,"Name":"CHILDRENS HOSPITAL","Phone":"(804) 321-7474","State":"VA","Supl":[{"Key":"ovrl_str_rtg","Value":"50"},{"Key":"insp_str_rtg","Value":"50"},{"Key":"stf_str_rtg","Value":"50"},{"Key":"qlty_msr_str_rtg","Value":"50"},{"Key":"rn_staffing_rating","Value":""},{"Key":"low_perf_prvdr","Value":"False"},{"Key":"prtcptn_desc","Value":"Medicaid"},{"Key":"is_qis","Value":""}],"Zip":"23220"},{"Adr1":"2949 W FRONT ST","Adr2":"","City":"RICHLANDS","Dist":"0.0","ID":"495181","Lat":37.0937576,"Long":-81.78432,"Name":"CLINCH VALLEY MEDICAL CENTER","Phone":"(276) 596-6000","State":"VA","Supl":[{"Key":"ovrl_str_rtg","Value":"40"},{"Key":"insp_str_rtg","Value":"50"},{"Key":"stf_str_rtg","Value":"Not Available|2"},{"Key":"qlty_msr_str_rtg","Value":"10"},{"Key":"rn_staffing_rating","Value":""},{"Key":"low_perf_prvdr","Value":"False"},{"Key":"prtcptn_desc","Value":"Medicare and Medicaid"},{"Key":"is_qis","Value":""}],"Zip":"24641"},{"Adr1":"305 MARCELLA ROAD","Adr2":"","City":"HAMPTON","Dist":"0.0","ID":"495305","Lat":37.049305,"Long":-76.39651,"Name":"COLISEUM CONVALESCENT AND REHABILITATION CENTER","Phone":"(757) 827-8953","State":"VA","Supl":[{"Key":"ovrl_str_rtg","Value":"30"},{"Key":"insp_str_rtg","Value":"40"},{"Key":"stf_str_rtg","Value":"10"},{"Key":"qlty_msr_str_rtg","Value":"20"},{"Key":"rn_staffing_rating","Value":""},{"Key":"low_perf_prvdr","Value":"False"},{"Key":"prtcptn_desc","Value":"Medicare and Medicaid"},{"Key":"is_qis","Value":""}],"Zip":"23666"},{"Adr1":"831 ELLERSLIE AVE","Adr2":"","City":"COLONIAL HEIGHTS","Dist":"0.0","ID":"495115","Lat":37.2654724,"Long":-77.39866,"Name":"COLONIAL HEIGHTS HEALTH CARE C","Phone":"(804) 526-6851","State":"VA","Supl":[{"Key":"ovrl_str_rtg","Value":"20"},{"Key":"insp_str_rtg","Value":"10"},{"Key":"stf_str_rtg","Value":"30"},{"Key":"qlty_msr_str_rtg","Value":"50"},{"Key":"rn_staffing_rating","Value":""},{"Key":"low_perf_prvdr","Value":"False"},{"Key":"prtcptn_desc","Value":"Medicare and Medicaid"},{"Key":"is_qis","Value":""}],"Zip":"23834"},{"Adr1":"100 COLONNADES HILL DRIVE","Adr2":"","City":"CHARLOTTESVILLE","Dist":"0.0","ID":"495254","Lat":38.0293045,"Long":-78.47668,"Name":"COLONNADES HEALTH CARE CENTER","Phone":"(804) 963-4198","State":"VA","Supl":[{"Key":"ovrl_str_rtg","Value":"20"},{"Key":"insp_str_rtg","Value":"10"},{"Key":"stf_str_rtg","Value":"50"},{"Key":"qlty_msr_str_rtg","Value":"50"},{"Key":"rn_staffing_rating","Value":""},{"Key":"low_perf_prvdr","Value":"False"},{"Key":"prtcptn_desc","Value":"Medicare and Medicaid"},{"Key":"is_qis","Value":""}],"Zip":"22901"},{"Adr1":"4315 CHAIN BRIDGE ROAD","Adr2":"","City":"FAIRFAX","Dist":"0.0","ID":"495174","Lat":38.84613,"Long":-77.30668,"Name":"COMMONWEALTH HEALTH & REHAB CENTER","Phone":"(703) 934-5000","State":"VA","Supl":[{"Key":"ovrl_str_rtg","Value":"20"},{"Key":"insp_str_rtg","Value":"20"},{"Key":"stf_str_rtg","Value":"30"},{"Key":"qlty_msr_str_rtg","Value":"30"},{"Key":"rn_staffing_rating","Value":""},{"Key":"low_perf_prvdr","Value":"False"},{"Key":"prtcptn_desc","Value":"Medicare and Medicaid"},{"Key":"is_qis","Value":""}],"Zip":"22030"},{"Adr1":"125 BUENA VISTA CIRCLE","Adr2":"","City":"SOUTH HILL","Dist":"0.0","ID":"495177","Lat":36.7344131,"Long":-78.1334839,"Name":"COMMUNITY MEMORIAL","Phone":"(434) 447-3151","State":"VA","Supl":[{"Key":"ovrl_str_rtg","Value":"10"},{"Key":"insp_str_rtg","Value":"10"},{"Key":"stf_str_rtg","Value":"30"},{"Key":"qlty_msr_str_rtg","Value":"40"},{"Key":"rn_staffing_rating","Value":""},{"Key":"low_perf_prvdr","Value":"False"},{"Key":"prtcptn_desc","Value":"Medicare and Medicaid"},{"Key":"is_qis","Value":""}],"Zip":"23970"},{"Adr1":"3900 LLEWELLYN AVE","Adr2":"","City":"NORFOLK","Dist":"0.0","ID":"495273","Lat":36.8814735,"Long":-76.28399,"Name":"CONSULATE HEALTH CARE OF NORFOLK","Phone":"(757) 625-5363","State":"VA","Supl":[{"Key":"ovrl_str_rtg","Value":"10"},{"Key":"insp_str_rtg","Value":"10"},{"Key":"stf_str_rtg","Value":"30"},{"Key":"qlty_msr_str_rtg","Value":"30"},{"Key":"rn_staffing_rating","Value":""},{"Key":"low_perf_prvdr","Value":"False"},{"Key":"prtcptn_desc","Value":"Medicare and Medicaid"},{"Key":"is_qis","Value":""}],"Zip":"23504"},{"Adr1":"23352 COURTHOUSE HIGHWAY","Adr2":"","City":"WINDSOR","Dist":"0.0","ID":"495347","Lat":36.8201866,"Long":-76.74825,"Name":"CONSULATE HEALTH CARE OF WINDSOR","Phone":"(757) 242-4770","State":"VA","Supl":[{"Key":"ovrl_str_rtg","Value":"20"},{"Key":"insp_str_rtg","Value":"10"},{"Key":"stf_str_rtg","Value":"10"},{"Key":"qlty_msr_str_rtg","Value":"50"},{"Key":"rn_staffing_rating","Value":""},{"Key":"low_perf_prvdr","Value":"False"},{"Key":"prtcptn_desc","Value":"Medicare and Medicaid"},{"Key":"is_qis","Value":""}],"Zip":"23487"},{"Adr1":"803 SOUTH MAIN ST","Adr2":"","City":"WOODSTOCK","Dist":"0.0","ID":"495315","Lat":38.8817253,"Long":-78.5052643,"Name":"CONSULATE HEALTH CARE OF WOODSTOCK","Phone":"(540) 459-5676","State":"VA","Supl":[{"Key":"ovrl_str_rtg","Value":"10"},{"Key":"insp_str_rtg","Value":"20"},{"Key":"stf_str_rtg","Value":"20"},{"Key":"qlty_msr_str_rtg","Value":"10"},{"Key":"rn_staffing_rating","Value":""},{"Key":"low_perf_prvdr","Value":"False"},{"Key":"prtcptn_desc","Value":"Medicare and Medicaid"},{"Key":"is_qis","Value":""}],"Zip":"22664"},{"Adr1":"1811 JAMESTOWN ROAD","Adr2":"","City":"WILLIAMSBURG","Dist":"0.0","ID":"495190","Lat":37.24137,"Long":-76.76493,"Name":"CONSULATE HEALTHCARE OF WILLIAMSBURG","Phone":"(757) 229-9991","State":"VA","Supl":[{"Key":"ovrl_str_rtg","Value":"30"},{"Key":"insp_str_rtg","Value":"20"},{"Key":"stf_str_rtg","Value":"30"},{"Key":"qlty_msr_str_rtg","Value":"50"},{"Key":"rn_staffing_rating","Value":""},{"Key":"low_perf_prvdr","Value":"False"},{"Key":"prtcptn_desc","Value":"Medicare and Medicaid"},{"Key":"is_qis","Value":""}],"Zip":"23185"},{"Adr1":"23020 MAIN STREET","Adr2":"","City":"COURTLAND","Dist":"0.0","ID":"495296","Lat":36.70792,"Long":-77.0536041,"Name":"COURTLAND HEALTH & REHABILITATION CENTER","Phone":"(757) 653-0908","State":"VA","Supl":[{"Key":"ovrl_str_rtg","Value":"50"},{"Key":"insp_str_rtg","Value":"50"},{"Key":"stf_str_rtg","Value":"30"},{"Key":"qlty_msr_str_rtg","Value":"30"},{"Key":"rn_staffing_rating","Value":""},{"Key":"low_perf_prvdr","Value":"False"},{"Key":"prtcptn_desc","Value":"Medicare and Medicaid"},{"Key":"is_qis","Value":""}],"Zip":"23837"},{"Adr1":"7090 COVENANT WOODS DRIVE","Adr2":"","City":"MECHANICSVILLE","Dist":"0.0","ID":"495419","Lat":37.62441,"Long":-77.3449249,"Name":"COVENANT WOODS NURSING HOME","Phone":"(804) 569-8003","State":"VA","Supl":[{"Key":"ovrl_str_rtg","Value":"Too New to Rate|1"},{"Key":"insp_str_rtg","Value":"Too New to Rate|1"},{"Key":"stf_str_rtg","Value":"Too New to Rate|1"},{"Key":"qlty_msr_str_rtg","Value":"Too New to Rate|1"},{"Key":"rn_staffing_rating","Value":""},{"Key":"low_perf_prvdr","Value":"False"},{"Key":"prtcptn_desc","Value":"Medicare"},{"Key":"is_qis","Value":""}],"Zip":"23111"},{"Adr1":"PO BOX 191 RTE 15","Adr2":"","City":"CULPEPER","Dist":"0.0","ID":"495400","Lat":38.4731827,"Long":-77.996666,"Name":"CULPEPER BAPTIST RETIRE COMMUN","Phone":"(540) 825-2411","State":"VA","Supl":[{"Key":"ovrl_str_rtg","Value":"50"},{"Key":"insp_str_rtg","Value":"30"},{"Key":"stf_str_rtg","Value":"50"},{"Key":"qlty_msr_str_rtg","Value":"50"},{"Key":"rn_staffing_rating","Value":""},{"Key":"low_perf_prvdr","Value":"False"},{"Key":"prtcptn_desc","Value":"Medicare and Medicaid"},{"Key":"is_qis","Value":""}],"Zip":"22701"},{"Adr1":"602 MADISON ROAD","Adr2":"","City":"CULPEPER","Dist":"0.0","ID":"495279","Lat":38.45888,"Long":-78.0143661,"Name":"CULPEPER HEALTH & REHABILITATION CENTER","Phone":"(540) 825-2884","State":"VA","Supl":[{"Key":"ovrl_str_rtg","Value":"10"},{"Key":"insp_str_rtg","Value":"10"},{"Key":"stf_str_rtg","Value":"20"},{"Key":"qlty_msr_str_rtg","Value":"20"},{"Key":"rn_staffing_rating","Value":""},{"Key":"low_perf_prvdr","Value":"False"},{"Key":"prtcptn_desc","Value":"Medicare and Medicaid"},{"Key":"is_qis","Value":""}],"Zip":"22701"},{"Adr1":"46 DIAMOND DRIVE","Adr2":"","City":"PETERSBURG","Dist":"0.0","ID":"495398","Lat":37.2137833,"Long":-77.40233,"Name":"DINWIDDIE HEALTH AND REHAB CENTER","Phone":"(804) 518-0780","State":"VA","Supl":[{"Key":"ovrl_str_rtg","Value":"20"},{"Key":"insp_str_rtg","Value":"10"},{"Key":"stf_str_rtg","Value":"20"},{"Key":"qlty_msr_str_rtg","Value":"50"},{"Key":"rn_staffing_rating","Value":""},{"Key":"low_perf_prvdr","Value":"False"},{"Key":"prtcptn_desc","Value":"Medicare and Medicaid"},{"Key":"is_qis","Value":""}],"Zip":"23803"},{"Adr1":"74 MIZPAH ROAD","Adr2":"","City":"LOCUST HILL","Dist":"0.0","ID":"49E111","Lat":37.59677,"Long":-76.5083542,"Name":"DOCKSIDE HEALTH & REHAB CENTER","Phone":"(804) 758-5260","State":"VA","Supl":[{"Key":"ovrl_str_rtg","Value":"10"},{"Key":"insp_str_rtg","Value":"10"},{"Key":"stf_str_rtg","Value":"20"},{"Key":"qlty_msr_str_rtg","Value":"30"},{"Key":"rn_staffing_rating","Value":""},{"Key":"low_perf_prvdr","Value":"False"},{"Key":"prtcptn_desc","Value":"Medicaid"},{"Key":"is_qis","Value":""}],"Zip":"23092"},{"Adr1":"120 DOGWOOD LANE","Adr2":"","City":"ORANGE","Dist":"0.0","ID":"495359","Lat":38.2538757,"Long":-78.11571,"Name":"DOGWOOD VILLAGE OF ORANGE COUNTY HEALTH AND REHAB","Phone":"(540) 672-2611","State":"VA","Supl":[{"Key":"ovrl_str_rtg","Value":"30"},{"Key":"insp_str_rtg","Value":"30"},{"Key":"stf_str_rtg","Value":"30"},{"Key":"qlty_msr_str_rtg","Value":"40"},{"Key":"rn_staffing_rating","Value":""},{"Key":"low_perf_prvdr","Value":"False"},{"Key":"prtcptn_desc","Value":"Medicare and Medicaid"},{"Key":"is_qis","Value":""}],"Zip":"22960"},{"Adr1":"200 WEAVER AVENUE","Adr2":"","City":"EMPORIA","Dist":"0.0","ID":"495375","Lat":36.69856,"Long":-77.537,"Name":"EMPORIA MANOR LLC","Phone":"(434) 634-6581","State":"VA","Supl":[{"Key":"ovrl_str_rtg","Value":"20"},{"Key":"insp_str_rtg","Value":"10"},{"Key":"stf_str_rtg","Value":"10"},{"Key":"qlty_msr_str_rtg","Value":"50"},{"Key":"rn_staffing_rating","Value":""},{"Key":"low_perf_prvdr","Value":"False"},{"Key":"prtcptn_desc","Value":"Medicare and Medicaid"},{"Key":"is_qis","Value":""}],"Zip":"23847"},{"Adr1":"2715 DOGTOWN ROAD","Adr2":"","City":"GOOCHLAND","Dist":"0.0","ID":"495236","Lat":37.74412,"Long":-77.9277039,"Name":"ENVOY AT THE MEADOWS","Phone":"(804) 556-4418","State":"VA","Supl":[{"Key":"ovrl_str_rtg","Value":"20"},{"Key":"insp_str_rtg","Value":"10"},{"Key":"stf_str_rtg","Value":"10"},{"Key":"qlty_msr_str_rtg","Value":"50"},{"Key":"rn_staffing_rating","Value":""},{"Key":"low_perf_prvdr","Value":"False"},{"Key":"prtcptn_desc","Value":"Medicare and Medicaid"},{"Key":"is_qis","Value":""}],"Zip":"23063"},{"Adr1":"4238 JAMES MADSON HIGHWAY","Adr2":"","City":"FORK UNION","Dist":"0.0","ID":"495230","Lat":37.7631721,"Long":-78.26246,"Name":"ENVOY AT THE VILLAGE","Phone":"(434) 842-2916","State":"VA","Supl":[{"Key":"ovrl_str_rtg","Value":"20"},{"Key":"insp_str_rtg","Value":"30"},{"Key":"stf_str_rtg","Value":"10"},{"Key":"qlty_msr_str_rtg","Value":"30"},{"Key":"rn_staffing_rating","Value":""},{"Key":"low_perf_prvdr","Value":"False"},{"Key":"prtcptn_desc","Value":"Medicare and Medicaid"},{"Key":"is_qis","Value":""}],"Zip":"23055"},{"Adr1":"900 VIRGINIA AVENUE","Adr2":"","City":"ALEXANDRIA","Dist":"0.0","ID":"495203","Lat":38.8268471,"Long":-77.0756454,"Name":"ENVOY OF ALEXANDRIA, LLC","Phone":"(703) 684-9100","State":"VA","Supl":[{"Key":"ovrl_str_rtg","Value":"20"},{"Key":"insp_str_rtg","Value":"10"},{"Key":"stf_str_rtg","Value":"40"},{"Key":"qlty_msr_str_rtg","Value":"30"},{"Key":"rn_staffing_rating","Value":""},{"Key":"low_perf_prvdr","Value":"False"},{"Key":"prtcptn_desc","Value":"Medicare and Medicaid"},{"Key":"is_qis","Value":""}],"Zip":"22302"},{"Adr1":"1722 LAWRENCEVILLE PLANK ROAD","Adr2":"","City":"LAWRENCEVILLE","Dist":"0.0","ID":"495192","Lat":36.76568,"Long":-77.8373947,"Name":"ENVOY OF LAWRENCEVILLE, LLC","Phone":"(434) 848-4766","State":"VA","Supl":[{"Key":"ovrl_str_rtg","Value":"40"},{"Key":"insp_str_rtg","Value":"30"},{"Key":"stf_str_rtg","Value":"20"},{"Key":"qlty_msr_str_rtg","Value":"50"},{"Key":"rn_staffing_rating","Value":""},{"Key":"low_perf_prvdr","Value":"False"},{"Key":"prtcptn_desc","Value":"Medicare and Medicaid"},{"Key":"is_qis","Value":""}],"Zip":"23868"},{"Adr1":"512 HOUSTON STREET","Adr2":"","City":"STAUNTON","Dist":"0.0","ID":"495243","Lat":38.1575356,"Long":-79.0607758,"Name":"ENVOY OF STAUNTON, LLC","Phone":"(540) 886-2335","State":"VA","Supl":[{"Key":"ovrl_str_rtg","Value":"10"},{"Key":"insp_str_rtg","Value":"10"},{"Key":"stf_str_rtg","Value":"30"},{"Key":"qlty_msr_str_rtg","Value":"20"},{"Key":"rn_staffing_rating","Value":""},{"Key":"low_perf_prvdr","Value":"False"},{"Key":"prtcptn_desc","Value":"Medicare and Medicaid"},{"Key":"is_qis","Value":""}],"Zip":"24402"},{"Adr1":"827 NORVIEW AVENUE","Adr2":"","City":"NORFOLK","Dist":"0.0","ID":"495309","Lat":36.88982,"Long":-76.25529,"Name":"ENVOY OF THORNTON HALL","Phone":"(757) 853-6281","State":"VA","Supl":[{"Key":"ovrl_str_rtg","Value":"20"},{"Key":"insp_str_rtg","Value":"10"},{"Key":"stf_str_rtg","Value":"30"},{"Key":"qlty_msr_str_rtg","Value":"50"},{"Key":"rn_staffing_rating","Value":""},{"Key":"low_perf_prvdr","Value":"False"},{"Key":"prtcptn_desc","Value":"Medicare and Medicaid"},{"Key":"is_qis","Value":""}],"Zip":"23509"},{"Adr1":"4403 FOREST HILL AVENUE","Adr2":"","City":"RICHMOND","Dist":"0.0","ID":"495327","Lat":37.5204353,"Long":-77.48127,"Name":"ENVOY OF WESTOVER HILLS","Phone":"(804) 231-0231","State":"VA","Supl":[{"Key":"ovrl_str_rtg","Value":"10"},{"Key":"insp_str_rtg","Value":"10"},{"Key":"stf_str_rtg","Value":"20"},{"Key":"qlty_msr_str_rtg","Value":"10"},{"Key":"rn_staffing_rating","Value":""},{"Key":"low_perf_prvdr","Value":"False"},{"Key":"prtcptn_desc","Value":"Medicare and Medicaid"},{"Key":"is_qis","Value":""}],"Zip":"23225"},{"Adr1":"1235 MT VERNON AVENUE","Adr2":"","City":"WILLIAMSBURG","Dist":"0.0","ID":"495235","Lat":37.2788353,"Long":-76.72192,"Name":"ENVOY OF WILLIAMSBURG, LLC","Phone":"(757) 229-4121","State":"VA","Supl":[{"Key":"ovrl_str_rtg","Value":"20"},{"Key":"insp_str_rtg","Value":"10"},{"Key":"stf_str_rtg","Value":"20"},{"Key":"qlty_msr_str_rtg","Value":"50"},{"Key":"rn_staffing_rating","Value":""},{"Key":"low_perf_prvdr","Value":"False"},{"Key":"prtcptn_desc","Value":"Medicare and Medicaid"},{"Key":"is_qis","Value":""}],"Zip":"23185"},{"Adr1":"110 LAUCK DR","Adr2":"","City":"WINCHESTER","Dist":"0.0","ID":"495389","Lat":39.20645,"Long":-78.16666,"Name":"ENVOY OF WINCHESTER, LLC","Phone":"(540) 667-7830","State":"VA","Supl":[{"Key":"ovrl_str_rtg","Value":"40"},{"Key":"insp_str_rtg","Value":"20"},{"Key":"stf_str_rtg","Value":"40"},{"Key":"qlty_msr_str_rtg","Value":"50"},{"Key":"rn_staffing_rating","Value":""},{"Key":"low_perf_prvdr","Value":"False"},{"Key":"prtcptn_desc","Value":"Medicare and Medicaid"},{"Key":"is_qis","Value":""}],"Zip":"22603"},{"Adr1":"14906 JEFFERSON DAVIS HIGHWAY","Adr2":"","City":"WOODBRIDGE","Dist":"0.0","ID":"495361","Lat":38.6296654,"Long":-77.2764359,"Name":"ENVOY OF WOODBRIDGE, LLC","Phone":"(703) 491-6167","State":"VA","Supl":[{"Key":"ovrl_str_rtg","Value":"20"},{"Key":"insp_str_rtg","Value":"10"},{"Key":"stf_str_rtg","Value":"30"},{"Key":"qlty_msr_str_rtg","Value":"50"},{"Key":"rn_staffing_rating","Value":""},{"Key":"low_perf_prvdr","Value":"False"},{"Key":"prtcptn_desc","Value":"Medicare and Medicaid"},{"Key":"is_qis","Value":""}],"Zip":"22191"},{"Adr1":"380 MILLWOOD AVENUE","Adr2":"","City":"WINCHESTER","Dist":"0.0","ID":"495142","Lat":39.1721725,"Long":-78.163475,"Name":"EVERGREEN HEALTH AND REHAB","Phone":"(540) 667-7010","State":"VA","Supl":[{"Key":"ovrl_str_rtg","Value":"20"},{"Key":"insp_str_rtg","Value":"20"},{"Key":"stf_str_rtg","Value":"20"},{"Key":"qlty_msr_str_rtg","Value":"20"},{"Key":"rn_staffing_rating","Value":""},{"Key":"low_perf_prvdr","Value":"False"},{"Key":"prtcptn_desc","Value":"Medicare and Medicaid"},{"Key":"is_qis","Value":""}],"Zip":"22601"},{"Adr1":"10701 MAIN STREET","Adr2":"","City":"FAIRFAX","Dist":"0.0","ID":"495099","Lat":38.96976,"Long":-77.24902,"Name":"FAIRFAX NURSING CENTER INC","Phone":"(703) 273-7705","State":"VA","Supl":[{"Key":"ovrl_str_rtg","Value":"50"},{"Key":"insp_str_rtg","Value":"30"},{"Key":"stf_str_rtg","Value":"50"},{"Key":"qlty_msr_str_rtg","Value":"50"},{"Key":"rn_staffing_rating","Value":""},{"Key":"low_perf_prvdr","Value":"False"},{"Key":"prtcptn_desc","Value":"Medicare and Medicaid"},{"Key":"is_qis","Value":""}],"Zip":"22030"},{"Adr1":"173 BROCKMAN PARK DRIVE","Adr2":"","City":"AMHERST","Dist":"0.0","ID":"495363","Lat":37.5791321,"Long":-79.03403,"Name":"FAIRMONT CROSSING","Phone":"(434) 946-2861","State":"VA","Supl":[{"Key":"ovrl_str_rtg","Value":"50"},{"Key":"insp_str_rtg","Value":"40"},{"Key":"stf_str_rtg","Value":"30"},{"Key":"qlty_msr_str_rtg","Value":"50"},{"Key":"rn_staffing_rating","Value":""},{"Key":"low_perf_prvdr","Value":"False"},{"Key":"prtcptn_desc","Value":"Medicare and Medicaid"},{"Key":"is_qis","Value":""}],"Zip":"24521"},{"Adr1":"140 BRIMLEY DRIVE","Adr2":"","City":"FREDERICKSBURG","Dist":"0.0","ID":"495407","Lat":38.3836823,"Long":-77.53901,"Name":"FALLS RUN NURSING AND REHAB CENTER","Phone":"(540) 752-0111","State":"VA","Supl":[{"Key":"ovrl_str_rtg","Value":"20"},{"Key":"insp_str_rtg","Value":"10"},{"Key":"stf_str_rtg","Value":"30"},{"Key":"qlty_msr_str_rtg","Value":"50"},{"Key":"rn_staffing_rating","Value":""},{"Key":"low_perf_prvdr","Value":"False"},{"Key":"prtcptn_desc","Value":"Medicare and Medicaid"},{"Key":"is_qis","Value":""}],"Zip":"22406"},{"Adr1":"360 HOSPITAL DRIVE","Adr2":"","City":"WARRENTON","Dist":"0.0","ID":"495233","Lat":38.7146072,"Long":-77.8106155,"Name":"FAUQUIER HEALTH REHABILITATION & NURSING CENTER","Phone":"(540) 316-5500","State":"VA","Supl":[{"Key":"ovrl_str_rtg","Value":"20"},{"Key":"insp_str_rtg","Value":"10"},{"Key":"stf_str_rtg","Value":"40"},{"Key":"qlty_msr_str_rtg","Value":"40"},{"Key":"rn_staffing_rating","Value":""},{"Key":"low_perf_prvdr","Value":"False"},{"Key":"prtcptn_desc","Value":"Medicare and Medicaid"},{"Key":"is_qis","Value":""}],"Zip":"20186"},{"Adr1":"100 FRANCIS MARION LANE, PO BOX 880","Adr2":"","City":"MARION","Dist":"0.0","ID":"495384","Lat":36.83484,"Long":-81.51484,"Name":"FRANCIS MARION MANOR HEALTH & REHABILITATION","Phone":"(276) 782-1396","State":"VA","Supl":[{"Key":"ovrl_str_rtg","Value":"40"},{"Key":"insp_str_rtg","Value":"40"},{"Key":"stf_str_rtg","Value":"30"},{"Key":"qlty_msr_str_rtg","Value":"20"},{"Key":"rn_staffing_rating","Value":""},{"Key":"low_perf_prvdr","Value":"False"},{"Key":"prtcptn_desc","Value":"Medicare and Medicaid"},{"Key":"is_qis","Value":""}],"Zip":"24354"},{"Adr1":"7385 WALKER AVE","Adr2":"","City":"GLOUCESTER","Dist":"0.0","ID":"495383","Lat":37.4154,"Long":-76.5262146,"Name":"FRANCIS N SANDERS NURSING HOME, INC","Phone":"(804) 693-2000","State":"VA","Supl":[{"Key":"ovrl_str_rtg","Value":"50"},{"Key":"insp_str_rtg","Value":"40"},{"Key":"stf_str_rtg","Value":"40"},{"Key":"qlty_msr_str_rtg","Value":"50"},{"Key":"rn_staffing_rating","Value":""},{"Key":"low_perf_prvdr","Value":"False"},{"Key":"prtcptn_desc","Value":"Medicare"},{"Key":"is_qis","Value":""}],"Zip":"23061"},{"Adr1":"720 ORCHARD AVENUE","Adr2":"","City":"ROCKY MOUNT","Dist":"0.0","ID":"495207","Lat":36.986393,"Long":-79.88712,"Name":"FRANKLIN HEALTH AND REHABILITATION CENTER","Phone":"(540) 489-3467","State":"VA","Supl":[{"Key":"ovrl_str_rtg","Value":"50"},{"Key":"insp_str_rtg","Value":"50"},{"Key":"stf_str_rtg","Value":"20"},{"Key":"qlty_msr_str_rtg","Value":"20"},{"Key":"rn_staffing_rating","Value":""},{"Key":"low_perf_prvdr","Value":"False"},{"Key":"prtcptn_desc","Value":"Medicare and Medicaid"},{"Key":"is_qis","Value":""}],"Zip":"24151"},{"Adr1":"327 HERSHBERGER RD NW","Adr2":"","City":"ROANOKE","Dist":"0.0","ID":"495092","Lat":37.3222122,"Long":-79.94355,"Name":"FRIENDSHIP HEALTH AND REHAB CENTER","Phone":"(540) 265-2100","State":"VA","Supl":[{"Key":"ovrl_str_rtg","Value":"20"},{"Key":"insp_str_rtg","Value":"20"},{"Key":"stf_str_rtg","Value":"30"},{"Key":"qlty_msr_str_rtg","Value":"20"},{"Key":"rn_staffing_rating","Value":""},{"Key":"low_perf_prvdr","Value":"False"},{"Key":"prtcptn_desc","Value":"Medicare and Medicaid"},{"Key":"is_qis","Value":""}],"Zip":"24012"},{"Adr1":"7501 HERITAGE VILLAGE PLAZA","Adr2":"","City":"GAINESVILLE","Dist":"0.0","ID":"495388","Lat":38.80378,"Long":-77.60541,"Name":"GAINESVILLE HEALTH AND REHAB CENTER","Phone":"(571) 248-6100","State":"VA","Supl":[{"Key":"ovrl_str_rtg","Value":"20"},{"Key":"insp_str_rtg","Value":"10"},{"Key":"stf_str_rtg","Value":"40"},{"Key":"qlty_msr_str_rtg","Value":"50"},{"Key":"rn_staffing_rating","Value":""},{"Key":"low_perf_prvdr","Value":"False"},{"Key":"prtcptn_desc","Value":"Medicare and Medicaid"},{"Key":"is_qis","Value":""}],"Zip":"20155"},{"Adr1":"1901 LIBBIE AVE","Adr2":"","City":"RICHMOND","Dist":"0.0","ID":"495391","Lat":37.58834,"Long":-77.50429,"Name":"GLENBURNIE REHAB & NURSING CENTER","Phone":"(804) 281-3500","State":"VA","Supl":[{"Key":"ovrl_str_rtg","Value":"20"},{"Key":"insp_str_rtg","Value":"20"},{"Key":"stf_str_rtg","Value":"30"},{"Key":"qlty_msr_str_rtg","Value":"30"},{"Key":"rn_staffing_rating","Value":""},{"Key":"low_perf_prvdr","Value":"False"},{"Key":"prtcptn_desc","Value":"Medicare and Medicaid"},{"Key":"is_qis","Value":""}],"Zip":"23226"},{"Adr1":"836 GLENDALE RD    PO BOX 229","Adr2":"","City":"GALAX","Dist":"0.0","ID":"495250","Lat":36.66124,"Long":-80.9239655,"Name":"GOLDEN LIVINGCENTER - BLUE RIDGE","Phone":"(276) 236-9991","State":"VA","Supl":[{"Key":"ovrl_str_rtg","Value":"10"},{"Key":"insp_str_rtg","Value":"20"},{"Key":"stf_str_rtg","Value":"20"},{"Key":"qlty_msr_str_rtg","Value":"10"},{"Key":"rn_staffing_rating","Value":""},{"Key":"low_perf_prvdr","Value":"False"},{"Key":"prtcptn_desc","Value":"Medicare and Medicaid"},{"Key":"is_qis","Value":""}],"Zip":"24333"},{"Adr1":"1242 CEDARS CT","Adr2":"","City":"CHARLOTTESVILLE","Dist":"0.0","ID":"495153","Lat":38.0569649,"Long":-78.49966,"Name":"GOLDEN LIVINGCENTER -CHARLOTTESVILLE","Phone":"(434) 296-5611","State":"VA","Supl":[{"Key":"ovrl_str_rtg","Value":"20"},{"Key":"insp_str_rtg","Value":"10"},{"Key":"stf_str_rtg","Value":"10"},{"Key":"qlty_msr_str_rtg","Value":"50"},{"Key":"rn_staffing_rating","Value":""},{"Key":"low_perf_prvdr","Value":"False"},{"Key":"prtcptn_desc","Value":"Medicare and Medicaid"},{"Key":"is_qis","Value":""}],"Zip":"22903"},{"Adr1":"1607 SPRUCE STREET","Adr2":"","City":"MARTINSVILLE","Dist":"0.0","ID":"495143","Lat":36.6701546,"Long":-79.840004,"Name":"GOLDEN LIVINGCENTER- MARTINSVLLE","Phone":"(276) 632-7146","State":"VA","Supl":[{"Key":"ovrl_str_rtg","Value":"10"},{"Key":"insp_str_rtg","Value":"20"},{"Key":"stf_str_rtg","Value":"10"},{"Key":"qlty_msr_str_rtg","Value":"20"},{"Key":"rn_staffing_rating","Value":""},{"Key":"low_perf_prvdr","Value":"False"},{"Key":"prtcptn_desc","Value":"Medicare and Medicaid"},{"Key":"is_qis","Value":""}],"Zip":"24112"},{"Adr1":"900 LONDON BOULEVARD","Adr2":"","City":"PORTSMOUTH","Dist":"0.0","ID":"495149","Lat":36.8374557,"Long":-76.30911,"Name":"GOLDEN LIVINGCENTER- PORTSMOUTH","Phone":"(757) 393-6864","State":"VA","Supl":[{"Key":"ovrl_str_rtg","Value":"20"},{"Key":"insp_str_rtg","Value":"20"},{"Key":"stf_str_rtg","Value":"30"},{"Key":"qlty_msr_str_rtg","Value":"40"},{"Key":"rn_staffing_rating","Value":""},{"Key":"low_perf_prvdr","Value":"False"},{"Key":"prtcptn_desc","Value":"Medicare and Medicaid"},{"Key":"is_qis","Value":""}],"Zip":"23704"},{"Adr1":"1725 MAIN STREET","Adr2":"","City":"CLIFTON FORGE","Dist":"0.0","ID":"495141","Lat":37.8151054,"Long":-79.8114548,"Name":"GOLDEN LIVINGCENTER-ALLEGHANY","Phone":"(540) 862-5791","State":"VA","Supl":[{"Key":"ovrl_str_rtg","Value":"20"},{"Key":"insp_str_rtg","Value":"20"},{"Key":"stf_str_rtg","Value":"20"},{"Key":"qlty_msr_str_rtg","Value":"40"},{"Key":"rn_staffing_rating","Value":""},{"Key":"low_perf_prvdr","Value":"False"},{"Key":"prtcptn_desc","Value":"Medicare and Medicaid"},{"Key":"is_qis","Value":""}],"Zip":"24422"},{"Adr1":"250 FLANK ROAD","Adr2":"","City":"PETERSBURG","Dist":"0.0","ID":"495252","Lat":37.19204,"Long":-77.37457,"Name":"GOLDEN LIVINGCENTER-BATTLEFIELD PARK","Phone":"(804) 861-2223","State":"VA","Supl":[{"Key":"ovrl_str_rtg","Value":"10"},{"Key":"insp_str_rtg","Value":"10"},{"Key":"stf_str_rtg","Value":"10"},{"Key":"qlty_msr_str_rtg","Value":"10"},{"Key":"rn_staffing_rating","Value":""},{"Key":"low_perf_prvdr","Value":"False"},{"Key":"prtcptn_desc","Value":"Medicare and Medicaid"},{"Key":"is_qis","Value":""}],"Zip":"23805"},{"Adr1":"1 VANTAGE DRIVE","Adr2":"","City":"POQUOSON","Dist":"0.0","ID":"495264","Lat":37.129425,"Long":-76.4055252,"Name":"GOLDEN LIVINGCENTER-BAYSIDE OF POQUOSON","Phone":"(757) 868-9960","State":"VA","Supl":[{"Key":"ovrl_str_rtg","Value":"20"},{"Key":"insp_str_rtg","Value":"20"},{"Key":"stf_str_rtg","Value":"20"},{"Key":"qlty_msr_str_rtg","Value":"30"},{"Key":"rn_staffing_rating","Value":""},{"Key":"low_perf_prvdr","Value":"False"},{"Key":"prtcptn_desc","Value":"Medicare and Medicaid"},{"Key":"is_qis","Value":""}],"Zip":"23662"},{"Adr1":"3600 MOUNTAIN ROAD","Adr2":"","City":"GLEN ALLEN","Dist":"0.0","ID":"495299","Lat":37.6674232,"Long":-77.5087357,"Name":"GOLDEN LIVINGCENTER-ELIZABETH ADAM CRUMP","Phone":"(804) 672-8725","State":"VA","Supl":[{"Key":"ovrl_str_rtg","Value":"10"},{"Key":"insp_str_rtg","Value":"10"},{"Key":"stf_str_rtg","Value":"10"},{"Key":"qlty_msr_str_rtg","Value":"10"},{"Key":"rn_staffing_rating","Value":""},{"Key":"low_perf_prvdr","Value":"False"},{"Key":"prtcptn_desc","Value":"Medicare and Medicaid"},{"Key":"is_qis","Value":""}],"Zip":"23060"},{"Adr1":"3900 PLANK ROAD","Adr2":"","City":"FREDERICKSBURG","Dist":"0.0","ID":"495240","Lat":38.2905273,"Long":-77.52794,"Name":"GOLDEN LIVINGCENTER-FREDERICKSBURG","Phone":"(540) 786-8351","State":"VA","Supl":[{"Key":"ovrl_str_rtg","Value":"10"},{"Key":"insp_str_rtg","Value":"10"},{"Key":"stf_str_rtg","Value":"10"},{"Key":"qlty_msr_str_rtg","Value":"20"},{"Key":"rn_staffing_rating","Value":""},{"Key":"low_perf_prvdr","Value":"False"},{"Key":"prtcptn_desc","Value":"Medicare and Medicaid"},{"Key":"is_qis","Value":""}],"Zip":"22407"},{"Adr1":"287  EAST SOUTH BOULEVARD","Adr2":"","City":"PETERSBURG","Dist":"0.0","ID":"495144","Lat":37.20603,"Long":-77.3808441,"Name":"GOLDEN LIVINGCENTER-PETERSBURG","Phone":"(804) 733-1190","State":"VA","Supl":[{"Key":"ovrl_str_rtg","Value":"10"},{"Key":"insp_str_rtg","Value":"10"},{"Key":"stf_str_rtg","Value":"10"},{"Key":"qlty_msr_str_rtg","Value":"40"},{"Key":"rn_staffing_rating","Value":""},{"Key":"low_perf_prvdr","Value":"False"},{"Key":"prtcptn_desc","Value":"Medicare and Medicaid"},{"Key":"is_qis","Value":""}],"Zip":"23805"},{"Adr1":"110 CHALMERS COURT","Adr2":"","City":"BERRYVILLE","Dist":"0.0","ID":"495140","Lat":39.14806,"Long":-77.98051,"Name":"GOLDEN LIVINGCENTER-ROSE HILL","Phone":"(540) 955-9995","State":"VA","Supl":[{"Key":"ovrl_str_rtg","Value":"20"},{"Key":"insp_str_rtg","Value":"10"},{"Key":"stf_str_rtg","Value":"20"},{"Key":"qlty_msr_str_rtg","Value":"50"},{"Key":"rn_staffing_rating","Value":""},{"Key":"low_perf_prvdr","Value":"False"},{"Key":"prtcptn_desc","Value":"Medicare and Medicaid"},{"Key":"is_qis","Value":""}],"Zip":"22611"},{"Adr1":"3737 CATALPA AVE, PO BOX 711","Adr2":"","City":"BUENA VISTA","Dist":"0.0","ID":"495168","Lat":37.7343,"Long":-79.35393,"Name":"GOLDEN LIVINGCENTER-SHENANDOAH VALLEY","Phone":"(540) 261-7444","State":"VA","Supl":[{"Key":"ovrl_str_rtg","Value":"30"},{"Key":"insp_str_rtg","Value":"40"},{"Key":"stf_str_rtg","Value":"20"},{"Key":"qlty_msr_str_rtg","Value":"10"},{"Key":"rn_staffing_rating","Value":""},{"Key":"low_perf_prvdr","Value":"False"},{"Key":"prtcptn_desc","Value":"Medicare and Medicaid"},{"Key":"is_qis","Value":""}],"Zip":"24416"},{"Adr1":"6700 COLUMBIA PK","Adr2":"","City":"ANNANDALE","Dist":"0.0","ID":"495155","Lat":38.83039,"Long":-77.19637,"Name":"GOLDEN LIVINGCENTER-SLEEPY HOLLOW","Phone":"(703) 256-7000","State":"VA","Supl":[{"Key":"ovrl_str_rtg","Value":"10"},{"Key":"insp_str_rtg","Value":"10"},{"Key":"stf_str_rtg","Value":"30"},{"Key":"qlty_msr_str_rtg","Value":"40"},{"Key":"rn_staffing_rating","Value":""},{"Key":"low_perf_prvdr","Value":"False"},{"Key":"prtcptn_desc","Value":"Medicare and Medicaid"},{"Key":"is_qis","Value":""}],"Zip":"22003"},{"Adr1":"4800 FILLMORE AVE","Adr2":"","City":"ALEXANDRIA","Dist":"0.0","ID":"495057","Lat":38.8353577,"Long":-77.11271,"Name":"GOODWIN HOUSE ALEXANDRIA","Phone":"(703) 824-1157","State":"VA","Supl":[{"Key":"ovrl_str_rtg","Value":"30"},{"Key":"insp_str_rtg","Value":"20"},{"Key":"stf_str_rtg","Value":"50"},{"Key":"qlty_msr_str_rtg","Value":"40"},{"Key":"rn_staffing_rating","Value":""},{"Key":"low_perf_prvdr","Value":"False"},{"Key":"prtcptn_desc","Value":"Medicare and Medicaid"},{"Key":"is_qis","Value":""}],"Zip":"22311"},{"Adr1":"3440 S JEFFERSON STREET","Adr2":"","City":"FALLS CHURCH","Dist":"0.0","ID":"495171","Lat":38.8941879,"Long":-77.17613,"Name":"GOODWIN HOUSE BAILEY'S CROSSROADS","Phone":"(703) 578-7262","State":"VA","Supl":[{"Key":"ovrl_str_rtg","Value":"50"},{"Key":"insp_str_rtg","Value":"40"},{"Key":"stf_str_rtg","Value":"50"},{"Key":"qlty_msr_str_rtg","Value":"50"},{"Key":"rn_staffing_rating","Value":""},{"Key":"low_perf_prvdr","Value":"False"},{"Key":"prtcptn_desc","Value":"Medicare and Medicaid"},{"Key":"is_qis","Value":""}],"Zip":"22041"},{"Adr1":"355 WILLIAM MILLS DRIVE","Adr2":"","City":"STANARDSVILLE","Dist":"0.0","ID":"495343","Lat":38.2917366,"Long":-78.43804,"Name":"GRACE HEALTH AND REHAB CENTER OF GREENE COUNTY","Phone":"(434) 985-4434","State":"VA","Supl":[{"Key":"ovrl_str_rtg","Value":"30"},{"Key":"insp_str_rtg","Value":"30"},{"Key":"stf_str_rtg","Value":"30"},{"Key":"qlty_msr_str_rtg","Value":"30"},{"Key":"rn_staffing_rating","Value":""},{"Key":"low_perf_prvdr","Value":"False"},{"Key":"prtcptn_desc","Value":"Medicare and Medicaid"},{"Key":"is_qis","Value":""}],"Zip":"22973"},{"Adr1":"600 WALDEN ROAD","Adr2":"","City":"ABINGDON","Dist":"0.0","ID":"495338","Lat":36.72296,"Long":-81.95798,"Name":"GRACE HEALTHCARE OF ABINGDON","Phone":"(276) 628-5137","State":"VA","Supl":[{"Key":"ovrl_str_rtg","Value":"20"},{"Key":"insp_str_rtg","Value":"30"},{"Key":"stf_str_rtg","Value":"10"},{"Key":"qlty_msr_str_rtg","Value":"20"},{"Key":"rn_staffing_rating","Value":""},{"Key":"low_perf_prvdr","Value":"False"},{"Key":"prtcptn_desc","Value":"Medicare and Medicaid"},{"Key":"is_qis","Value":""}],"Zip":"24210"},{"Adr1":"400 SOUTH INDEPENDENCE AVENUE","Adr2":"","City":"INDEPENDENCE","Dist":"0.0","ID":"495331","Lat":36.62235,"Long":-81.1509247,"Name":"GRAYSON REHABILITATION  AND HEALTH CARE CENTER","Phone":"(276) 773-0303","State":"VA","Supl":[{"Key":"ovrl_str_rtg","Value":"40"},{"Key":"insp_str_rtg","Value":"40"},{"Key":"stf_str_rtg","Value":"30"},{"Key":"qlty_msr_str_rtg","Value":"20"},{"Key":"rn_staffing_rating","Value":""},{"Key":"low_perf_prvdr","Value":"False"},{"Key":"prtcptn_desc","Value":"Medicare and Medicaid"},{"Key":"is_qis","Value":""}],"Zip":"24348"},{"Adr1":"7470 SPRING VILLAGE DR","Adr2":"","City":"SPRINGFIELD","Dist":"0.0","ID":"495354","Lat":38.76619,"Long":-77.20109,"Name":"GREENSPRING VILLAGE","Phone":"(703) 923-4663","State":"VA","Supl":[{"Key":"ovrl_str_rtg","Value":"50"},{"Key":"insp_str_rtg","Value":"40"},{"Key":"stf_str_rtg","Value":"40"},{"Key":"qlty_msr_str_rtg","Value":"50"},{"Key":"rn_staffing_rating","Value":""},{"Key":"low_perf_prvdr","Value":"False"},{"Key":"prtcptn_desc","Value":"Medicare and Medicaid"},{"Key":"is_qis","Value":""}],"Zip":"22150"},{"Adr1":"214 WEAVER AVE","Adr2":"","City":"EMPORIA","Dist":"0.0","ID":"495199","Lat":36.6995239,"Long":-77.5397339,"Name":"GREENSVILLE HEALTH AND REHABILITATION CENTER","Phone":"(434) 348-2150","State":"VA","Supl":[{"Key":"ovrl_str_rtg","Value":"10"},{"Key":"insp_str_rtg","Value":"10"},{"Key":"stf_str_rtg","Value":"10"},{"Key":"qlty_msr_str_rtg","Value":"30"},{"Key":"rn_staffing_rating","Value":""},{"Key":"low_perf_prvdr","Value":"False"},{"Key":"prtcptn_desc","Value":"Medicare and Medicaid"},{"Key":"is_qis","Value":""}],"Zip":"23847"},{"Adr1":"595 VADEN DRIVE","Adr2":"","City":"GRETNA","Dist":"0.0","ID":"495202","Lat":36.9514122,"Long":-79.37322,"Name":"GRETNA HEALTH AND REHABILITATION CENTER","Phone":"(434) 656-1206","State":"VA","Supl":[{"Key":"ovrl_str_rtg","Value":"50"},{"Key":"insp_str_rtg","Value":"50"},{"Key":"stf_str_rtg","Value":"30"},{"Key":"qlty_msr_str_rtg","Value":"20"},{"Key":"rn_staffing_rating","Value":""},{"Key":"low_perf_prvdr","Value":"False"},{"Key":"prtcptn_desc","Value":"Medicare and Medicaid"},{"Key":"is_qis","Value":""}],"Zip":"24557"},{"Adr1":"8139 LEE DAVIS ROAD","Adr2":"","City":"MECHANICSVILLE","Dist":"0.0","ID":"495266","Lat":37.6227722,"Long":-77.3424759,"Name":"HANOVER HEALTH AND REHABILITATION CENTER","Phone":"(804) 559-5030","State":"VA","Supl":[{"Key":"ovrl_str_rtg","Value":"50"},{"Key":"insp_str_rtg","Value":"30"},{"Key":"stf_str_rtg","Value":"40"},{"Key":"qlty_msr_str_rtg","Value":"50"},{"Key":"rn_staffing_rating","Value":""},{"Key":"low_perf_prvdr","Value":"False"},{"Key":"prtcptn_desc","Value":"Medicare and Medicaid"},{"Key":"is_qis","Value":""}],"Zip":"23111"},{"Adr1":"ONE COLLEY AVENUE","Adr2":"","City":"NORFOLK","Dist":"0.0","ID":"495395","Lat":36.85649,"Long":-76.30448,"Name":"HARBOR'S EDGE","Phone":"(757) 233-0475","State":"VA","Supl":[{"Key":"ovrl_str_rtg","Value":"50"},{"Key":"insp_str_rtg","Value":"40"},{"Key":"stf_str_rtg","Value":"40"},{"Key":"qlty_msr_str_rtg","Value":"50"},{"Key":"rn_staffing_rating","Value":""},{"Key":"low_perf_prvdr","Value":"False"},{"Key":"prtcptn_desc","Value":"Medicare"},{"Key":"is_qis","Value":""}],"Zip":"23510"},{"Adr1":"1225 RESERVOIR STREET","Adr2":"","City":"HARRISONBURG","Dist":"0.0","ID":"495093","Lat":38.4386826,"Long":-78.85633,"Name":"HARRISONBURG HLTH & REHAB CNTR","Phone":"(540) 433-2623","State":"VA","Supl":[{"Key":"ovrl_str_rtg","Value":"10"},{"Key":"insp_str_rtg","Value":"10"},{"Key":"stf_str_rtg","Value":"30"},{"Key":"qlty_msr_str_rtg","Value":"20"},{"Key":"rn_staffing_rating","Value":""},{"Key":"low_perf_prvdr","Value":"False"},{"Key":"prtcptn_desc","Value":"Medicare and Medicaid"},{"Key":"is_qis","Value":""}],"Zip":"22801"},{"Adr1":"2100 BRANDERMILL PKWY","Adr2":"","City":"MIDLOTHIAN","Dist":"0.0","ID":"495183","Lat":37.46206,"Long":-77.66421,"Name":"HEALTH CARE CENTER AT BRANDERM","Phone":"(804) 379-7100","State":"VA","Supl":[{"Key":"ovrl_str_rtg","Value":"40"},{"Key":"insp_str_rtg","Value":"40"},{"Key":"stf_str_rtg","Value":"40"},{"Key":"qlty_msr_str_rtg","Value":"30"},{"Key":"rn_staffing_rating","Value":""},{"Key":"low_perf_prvdr","Value":"False"},{"Key":"prtcptn_desc","Value":"Medicare and Medicaid"},{"Key":"is_qis","Value":""}],"Zip":"23112"},{"Adr1":"6800 LUCY CORR BLVD","Adr2":"","City":"CHESTERFIELD","Dist":"0.0","ID":"495079","Lat":37.3830032,"Long":-77.5049,"Name":"HEALTH CARE CENTER LUCY CORR","Phone":"(804) 748-1511","State":"VA","Supl":[{"Key":"ovrl_str_rtg","Value":"20"},{"Key":"insp_str_rtg","Value":"10"},{"Key":"stf_str_rtg","Value":"40"},{"Key":"qlty_msr_str_rtg","Value":"20"},{"Key":"rn_staffing_rating","Value":""},{"Key":"low_perf_prvdr","Value":"False"},{"Key":"prtcptn_desc","Value":"Medicare and Medicaid"},{"Key":"is_qis","Value":""}],"Zip":"23832"},{"Adr1":"2200 LANDOVER PLACE","Adr2":"","City":"LYNCHBURG","Dist":"0.0","ID":"495077","Lat":37.4126854,"Long":-79.17582,"Name":"HEARTLAND HEALTH CARE CENTER - LYNCHBURG","Phone":"(434) 846-4626","State":"VA","Supl":[{"Key":"ovrl_str_rtg","Value":"20"},{"Key":"insp_str_rtg","Value":"20"},{"Key":"stf_str_rtg","Value":"10"},{"Key":"qlty_msr_str_rtg","Value":"50"},{"Key":"rn_staffing_rating","Value":""},{"Key":"low_perf_prvdr","Value":"False"},{"Key":"prtcptn_desc","Value":"Medicare and Medicaid"},{"Key":"is_qis","Value":""}],"Zip":"24501"},{"Adr1":"561 NORTH AIRPORT DRIVE","Adr2":"","City":"HIGHLAND SPRINGS","Dist":"0.0","ID":"495193","Lat":37.5512733,"Long":-77.31521,"Name":"HENRICO HEALTH & REHABILITATION CENTER","Phone":"(804) 737-0172","State":"VA","Supl":[{"Key":"ovrl_str_rtg","Value":"20"},{"Key":"insp_str_rtg","Value":"20"},{"Key":"stf_str_rtg","Value":"30"},{"Key":"qlty_msr_str_rtg","Value":"40"},{"Key":"rn_staffing_rating","Value":""},{"Key":"low_perf_prvdr","Value":"False"},{"Key":"prtcptn_desc","Value":"Medicare and Medicaid"},{"Key":"is_qis","Value":""}],"Zip":"23075"},{"Adr1":"400 WEST STRASBURG ROAD","Adr2":"","City":"FRONT ROYAL","Dist":"0.0","ID":"495301","Lat":38.9181671,"Long":-78.19444,"Name":"HERITAGE HALL  FRONT ROYAL","Phone":"(540) 636-3700","State":"VA","Supl":[{"Key":"ovrl_str_rtg","Value":"50"},{"Key":"insp_str_rtg","Value":"50"},{"Key":"stf_str_rtg","Value":"10"},{"Key":"qlty_msr_str_rtg","Value":"50"},{"Key":"rn_staffing_rating","Value":""},{"Key":"low_perf_prvdr","Value":"False"},{"Key":"prtcptn_desc","Value":"Medicare and Medicaid"},{"Key":"is_qis","Value":""}],"Zip":"22630"},{"Adr1":"633 COOK AVENUE","Adr2":"","City":"BROOKNEAL","Dist":"0.0","ID":"495242","Lat":37.0419655,"Long":-78.93256,"Name":"HERITAGE HALL - BROOKNEAL","Phone":"(434) 376-3717","State":"VA","Supl":[{"Key":"ovrl_str_rtg","Value":"50"},{"Key":"insp_str_rtg","Value":"40"},{"Key":"stf_str_rtg","Value":"20"},{"Key":"qlty_msr_str_rtg","Value":"50"},{"Key":"rn_staffing_rating","Value":""},{"Key":"low_perf_prvdr","Value":"False"},{"Key":"prtcptn_desc","Value":"Medicare and Medicaid"},{"Key":"is_qis","Value":""}],"Zip":"24528"},{"Adr1":"16600 DANVILLE PIKE","Adr2":"","City":"LAUREL FORK","Dist":"0.0","ID":"495323","Lat":36.7197342,"Long":-80.47621,"Name":"HERITAGE HALL - LAUREL MEADOWS","Phone":"(276) 398-2117","State":"VA","Supl":[{"Key":"ovrl_str_rtg","Value":"40"},{"Key":"insp_str_rtg","Value":"40"},{"Key":"stf_str_rtg","Value":"10"},{"Key":"qlty_msr_str_rtg","Value":"50"},{"Key":"rn_staffing_rating","Value":""},{"Key":"low_perf_prvdr","Value":"False"},{"Key":"prtcptn_desc","Value":"Medicare and Medicaid"},{"Key":"is_qis","Value":""}],"Zip":"24352"},{"Adr1":"2045 VALLEY VIEW DRIVE","Adr2":"","City":"BIG STONE GAP","Dist":"0.0","ID":"495135","Lat":36.8755226,"Long":-82.75588,"Name":"HERITAGE HALL BIG STONE GAP","Phone":"(276) 523-3000","State":"VA","Supl":[{"Key":"ovrl_str_rtg","Value":"30"},{"Key":"insp_str_rtg","Value":"50"},{"Key":"stf_str_rtg","Value":"10"},{"Key":"qlty_msr_str_rtg","Value":"10"},{"Key":"rn_staffing_rating","Value":""},{"Key":"low_perf_prvdr","Value":"False"},{"Key":"prtcptn_desc","Value":"Medicare and Medicaid"},{"Key":"is_qis","Value":""}],"Zip":"24219"},{"Adr1":"3610 SOUTH MAIN STREET","Adr2":"","City":"BLACKSBURG","Dist":"0.0","ID":"495356","Lat":37.21475,"Long":-80.4006348,"Name":"HERITAGE HALL BLACKSBURG","Phone":"(540) 951-7000","State":"VA","Supl":[{"Key":"ovrl_str_rtg","Value":"40"},{"Key":"insp_str_rtg","Value":"40"},{"Key":"stf_str_rtg","Value":"20"},{"Key":"qlty_msr_str_rtg","Value":"20"},{"Key":"rn_staffing_rating","Value":""},{"Key":"low_perf_prvdr","Value":"False"},{"Key":"prtcptn_desc","Value":"Medicare and Medicaid"},{"Key":"is_qis","Value":""}],"Zip":"24060"},{"Adr1":"900 S MAIN ST","Adr2":"","City":"BLACKSTONE","Dist":"0.0","ID":"495353","Lat":37.077076,"Long":-77.99891,"Name":"HERITAGE HALL BLACKSTONE","Phone":"(434) 292-5301","State":"VA","Supl":[{"Key":"ovrl_str_rtg","Value":"20"},{"Key":"insp_str_rtg","Value":"10"},{"Key":"stf_str_rtg","Value":"10"},{"Key":"qlty_msr_str_rtg","Value":"50"},{"Key":"rn_staffing_rating","Value":""},{"Key":"low_perf_prvdr","Value":"False"},{"Key":"prtcptn_desc","Value":"Medicare and Medicaid"},{"Key":"is_qis","Value":""}],"Zip":"23824"},{"Adr1":"1225 CLINTWOOD MAIN STREET, ROUTE 607 PO BOX 909","Adr2":"","City":"CLINTWOOD","Dist":"0.0","ID":"495320","Lat":37.15011,"Long":-82.455986,"Name":"HERITAGE HALL CLINTWOOD","Phone":"(276) 926-4693","State":"VA","Supl":[{"Key":"ovrl_str_rtg","Value":"40"},{"Key":"insp_str_rtg","Value":"40"},{"Key":"stf_str_rtg","Value":"20"},{"Key":"qlty_msr_str_rtg","Value":"40"},{"Key":"rn_staffing_rating","Value":""},{"Key":"low_perf_prvdr","Value":"False"},{"Key":"prtcptn_desc","Value":"Medicare and Medicaid"},{"Key":"is_qis","Value":""}],"Zip":"24228"},{"Adr1":"119 BRICKYARD DRIVE","Adr2":"","City":"DILLWYN","Dist":"0.0","ID":"495317","Lat":37.5438042,"Long":-78.46578,"Name":"HERITAGE HALL DILLWYN","Phone":"(434) 983-2050","State":"VA","Supl":[{"Key":"ovrl_str_rtg","Value":"30"},{"Key":"insp_str_rtg","Value":"30"},{"Key":"stf_str_rtg","Value":"10"},{"Key":"qlty_msr_str_rtg","Value":"50"},{"Key":"rn_staffing_rating","Value":""},{"Key":"low_perf_prvdr","Value":"False"},{"Key":"prtcptn_desc","Value":"Medicare and Medicaid"},{"Key":"is_qis","Value":""}],"Zip":"23936"},{"Adr1":"2966 SLATE CREEK ROAD","Adr2":"","City":"GRUNDY","Dist":"0.0","ID":"495259","Lat":37.3090324,"Long":-81.965744,"Name":"HERITAGE HALL GRUNDY","Phone":"(276) 935-8144","State":"VA","Supl":[{"Key":"ovrl_str_rtg","Value":"20"},{"Key":"insp_str_rtg","Value":"40"},{"Key":"stf_str_rtg","Value":"10"},{"Key":"qlty_msr_str_rtg","Value":"10"},{"Key":"rn_staffing_rating","Value":""},{"Key":"low_perf_prvdr","Value":"False"},{"Key":"prtcptn_desc","Value":"Medicare and Medicaid"},{"Key":"is_qis","Value":""}],"Zip":"24614"},{"Adr1":"10051 FOXES WAY","Adr2":"","City":"KING GEORGE","Dist":"0.0","ID":"495300","Lat":38.2751274,"Long":-77.19575,"Name":"HERITAGE HALL KING GEORGE","Phone":"(540) 775-4000","State":"VA","Supl":[{"Key":"ovrl_str_rtg","Value":"20"},{"Key":"insp_str_rtg","Value":"10"},{"Key":"stf_str_rtg","Value":"10"},{"Key":"qlty_msr_str_rtg","Value":"50"},{"Key":"rn_staffing_rating","Value":""},{"Key":"low_perf_prvdr","Value":"False"},{"Key":"prtcptn_desc","Value":"Medicare and Medicaid"},{"Key":"is_qis","Value":""}],"Zip":"22485"},{"Adr1":"205 HOUSTON STREET","Adr2":"","City":"EAST LEXINGTON","Dist":"0.0","ID":"495321","Lat":37.77569,"Long":-79.44182,"Name":"HERITAGE HALL LEXINGTON","Phone":"(540) 464-8181","State":"VA","Supl":[{"Key":"ovrl_str_rtg","Value":"30"},{"Key":"insp_str_rtg","Value":"40"},{"Key":"stf_str_rtg","Value":"10"},{"Key":"qlty_msr_str_rtg","Value":"40"},{"Key":"rn_staffing_rating","Value":""},{"Key":"low_perf_prvdr","Value":"False"},{"Key":"prtcptn_desc","Value":"Medicare and Medicaid"},{"Key":"is_qis","Value":""}],"Zip":"24450"},{"Adr1":"122 MORVEN PARK ROAD NW","Adr2":"","City":"LEESBURG","Dist":"0.0","ID":"495261","Lat":39.1211777,"Long":-77.57168,"Name":"HERITAGE HALL NRSG AND REHAB","Phone":"(703) 777-8700","State":"VA","Supl":[{"Key":"ovrl_str_rtg","Value":"20"},{"Key":"insp_str_rtg","Value":"20"},{"Key":"stf_str_rtg","Value":"30"},{"Key":"qlty_msr_str_rtg","Value":"40"},{"Key":"rn_staffing_rating","Value":""},{"Key":"low_perf_prvdr","Value":"False"},{"Key":"prtcptn_desc","Value":"Medicare and Medicaid"},{"Key":"is_qis","Value":""}],"Zip":"20176"},{"Adr1":"9468 HOSPITAL ROAD","Adr2":"","City":"NASSAWADOX","Dist":"0.0","ID":"495277","Lat":37.471447,"Long":-75.86066,"Name":"HERITAGE HALL NURSING HOME \/NA","Phone":"(757) 442-5600","State":"VA","Supl":[{"Key":"ovrl_str_rtg","Value":"10"},{"Key":"insp_str_rtg","Value":"20"},{"Key":"stf_str_rtg","Value":"10"},{"Key":"qlty_msr_str_rtg","Value":"20"},{"Key":"rn_staffing_rating","Value":""},{"Key":"low_perf_prvdr","Value":"False"},{"Key":"prtcptn_desc","Value":"Medicare and Medicaid"},{"Key":"is_qis","Value":""}],"Zip":"23413"},{"Adr1":"121 BEN BOLT AVENUE","Adr2":"","City":"TAZEWELL","Dist":"0.0","ID":"495152","Lat":37.1232948,"Long":-81.4914,"Name":"HERITAGE HALL TAZEWELL","Phone":"(276) 988-2515","State":"VA","Supl":[{"Key":"ovrl_str_rtg","Value":"20"},{"Key":"insp_str_rtg","Value":"30"},{"Key":"stf_str_rtg","Value":"10"},{"Key":"qlty_msr_str_rtg","Value":"20"},{"Key":"rn_staffing_rating","Value":""},{"Key":"low_perf_prvdr","Value":"False"},{"Key":"prtcptn_desc","Value":"Medicare and Medicaid"},{"Key":"is_qis","Value":""}],"Zip":"24651"},{"Adr1":"5580 DANIEL SMITH ROAD","Adr2":"","City":"VIRGINIA BEACH","Dist":"0.0","ID":"495234","Lat":36.8622246,"Long":-76.17113,"Name":"HERITAGE HALL VIRGINIA BEACH","Phone":"(757) 499-7029","State":"VA","Supl":[{"Key":"ovrl_str_rtg","Value":"10"},{"Key":"insp_str_rtg","Value":"20"},{"Key":"stf_str_rtg","Value":"20"},{"Key":"qlty_msr_str_rtg","Value":"10"},{"Key":"rn_staffing_rating","Value":""},{"Key":"low_perf_prvdr","Value":"False"},{"Key":"prtcptn_desc","Value":"Medicare and Medicaid"},{"Key":"is_qis","Value":""}],"Zip":"23462"},{"Adr1":"9434 COEBURN MOUNTAIN ROAD","Adr2":"","City":"WISE","Dist":"0.0","ID":"495350","Lat":36.968544,"Long":-82.5586853,"Name":"HERITAGE HALL WISE","Phone":"(276) 328-2721","State":"VA","Supl":[{"Key":"ovrl_str_rtg","Value":"30"},{"Key":"insp_str_rtg","Value":"40"},{"Key":"stf_str_rtg","Value":"30"},{"Key":"qlty_msr_str_rtg","Value":"10"},{"Key":"rn_staffing_rating","Value":""},{"Key":"low_perf_prvdr","Value":"False"},{"Key":"prtcptn_desc","Value":"Medicare and Medicaid"},{"Key":"is_qis","Value":""}],"Zip":"24293"},{"Adr1":"120  OLD VIRGINIA AVENUE","Adr2":"","City":"RICH CREEK","Dist":"0.0","ID":"495371","Lat":37.3884,"Long":-80.82862,"Name":"HERITAGE HALL-RICH CREEK","Phone":"(540) 726-2328","State":"VA","Supl":[{"Key":"ovrl_str_rtg","Value":"40"},{"Key":"insp_str_rtg","Value":"40"},{"Key":"stf_str_rtg","Value":"20"},{"Key":"qlty_msr_str_rtg","Value":"30"},{"Key":"rn_staffing_rating","Value":""},{"Key":"low_perf_prvdr","Value":"False"},{"Key":"prtcptn_desc","Value":"Medicare and Medicaid"},{"Key":"is_qis","Value":""}],"Zip":"24147"},{"Adr1":"5872 HANKS STREET  PO BOX 1087","Adr2":"","City":"DUBLIN","Dist":"0.0","ID":"495333","Lat":37.10568,"Long":-80.68534,"Name":"HIGHLAND RIDGE REHAB CENTER","Phone":"(540) 674-4193","State":"VA","Supl":[{"Key":"ovrl_str_rtg","Value":"50"},{"Key":"insp_str_rtg","Value":"40"},{"Key":"stf_str_rtg","Value":"40"},{"Key":"qlty_msr_str_rtg","Value":"50"},{"Key":"rn_staffing_rating","Value":""},{"Key":"low_perf_prvdr","Value":"False"},{"Key":"prtcptn_desc","Value":"Medicare and Medicaid"},{"Key":"is_qis","Value":""}],"Zip":"24084"},{"Adr1":"26317 WEST WASHINGTON STREET","Adr2":"","City":"PETERSBURG","Dist":"0.0","ID":"495113","Lat":37.2205963,"Long":-77.42871,"Name":"HIRAM W DAVIS MEDICAL CTR","Phone":"(804) 524-7420","State":"VA","Supl":[{"Key":"ovrl_str_rtg","Value":"30"},{"Key":"insp_str_rtg","Value":"20"},{"Key":"stf_str_rtg","Value":"50"},{"Key":"qlty_msr_str_rtg","Value":"30"},{"Key":"rn_staffing_rating","Value":""},{"Key":"low_perf_prvdr","Value":"False"},{"Key":"prtcptn_desc","Value":"Medicare and Medicaid"},{"Key":"is_qis","Value":""}],"Zip":"23803"},{"Adr1":"2003 COBB STREET","Adr2":"","City":"FARMVILLE","Dist":"0.0","ID":"495339","Lat":37.308567,"Long":-78.42061,"Name":"HOLLY MANOR NURSING HOME","Phone":"(434) 392-6106","State":"VA","Supl":[{"Key":"ovrl_str_rtg","Value":"50"},{"Key":"insp_str_rtg","Value":"50"},{"Key":"stf_str_rtg","Value":"30"},{"Key":"qlty_msr_str_rtg","Value":"40"},{"Key":"rn_staffing_rating","Value":""},{"Key":"low_perf_prvdr","Value":"False"},{"Key":"prtcptn_desc","Value":"Medicare and Medicaid"},{"Key":"is_qis","Value":""}],"Zip":"23901"},{"Adr1":"905 COUSINS AVENUE","Adr2":"","City":"HOPEWELL","Dist":"0.0","ID":"495123","Lat":37.2640877,"Long":-77.32605,"Name":"HOPEWELL HEALTH CARE CENTER","Phone":"(804) 458-6325","State":"VA","Supl":[{"Key":"ovrl_str_rtg","Value":"30"},{"Key":"insp_str_rtg","Value":"30"},{"Key":"stf_str_rtg","Value":"30"},{"Key":"qlty_msr_str_rtg","Value":"30"},{"Key":"rn_staffing_rating","Value":""},{"Key":"low_perf_prvdr","Value":"False"},{"Key":"prtcptn_desc","Value":"Medicare and Medicaid"},{"Key":"is_qis","Value":""}],"Zip":"23860"},{"Adr1":"8000 ILIFF DRIVE","Adr2":"","City":"DUNN LORING","Dist":"0.0","ID":"495205","Lat":38.89073,"Long":-77.22141,"Name":"ILIFF NURSING AND REHAB CENTER","Phone":"(703) 560-1000","State":"VA","Supl":[{"Key":"ovrl_str_rtg","Value":"50"},{"Key":"insp_str_rtg","Value":"30"},{"Key":"stf_str_rtg","Value":"40"},{"Key":"qlty_msr_str_rtg","Value":"50"},{"Key":"rn_staffing_rating","Value":""},{"Key":"low_perf_prvdr","Value":"False"},{"Key":"prtcptn_desc","Value":"Medicare and Medicaid"},{"Key":"is_qis","Value":""}],"Zip":"22027"},{"Adr1":"540 ABERTHAW AVENUE","Adr2":"","City":"NEWPORT NEWS","Dist":"0.0","ID":"495286","Lat":37.03429,"Long":-76.45514,"Name":"JAMES RIVER CONVALESCENT CENTE","Phone":"(757) 595-2273","State":"VA","Supl":[{"Key":"ovrl_str_rtg","Value":"20"},{"Key":"insp_str_rtg","Value":"30"},{"Key":"stf_str_rtg","Value":"20"},{"Key":"qlty_msr_str_rtg","Value":"10"},{"Key":"rn_staffing_rating","Value":""},{"Key":"low_perf_prvdr","Value":"False"},{"Key":"prtcptn_desc","Value":"Medicare and Medicaid"},{"Key":"is_qis","Value":""}],"Zip":"23601"},{"Adr1":"20535 EARHART PLACE","Adr2":"","City":"STERLING","Dist":"0.0","ID":"495312","Lat":39.0473,"Long":-77.3766861,"Name":"JOHNSON CNTR\/FALCONS LANDING","Phone":"(703) 404-5201","State":"VA","Supl":[{"Key":"ovrl_str_rtg","Value":"50"},{"Key":"insp_str_rtg","Value":"30"},{"Key":"stf_str_rtg","Value":"40"},{"Key":"qlty_msr_str_rtg","Value":"50"},{"Key":"rn_staffing_rating","Value":""},{"Key":"low_perf_prvdr","Value":"False"},{"Key":"prtcptn_desc","Value":"Medicare"},{"Key":"is_qis","Value":""}],"Zip":"20165"},{"Adr1":"5520 INDIAN RIVER ROAD","Adr2":"","City":"VIRGINIA BEACH","Dist":"0.0","ID":"495232","Lat":36.8022842,"Long":-76.1828156,"Name":"KEMPSVILLE HEALTH & REHAB CENTER","Phone":"(757) 420-3600","State":"VA","Supl":[{"Key":"ovrl_str_rtg","Value":"50"},{"Key":"insp_str_rtg","Value":"40"},{"Key":"stf_str_rtg","Value":"30"},{"Key":"qlty_msr_str_rtg","Value":"50"},{"Key":"rn_staffing_rating","Value":""},{"Key":"low_perf_prvdr","Value":"False"},{"Key":"prtcptn_desc","Value":"Medicare and Medicaid"},{"Key":"is_qis","Value":""}],"Zip":"23464"},{"Adr1":"170 KENDAL DRIVE","Adr2":"","City":"LEXINGTON","Dist":"0.0","ID":"495034","Lat":37.78359,"Long":-79.46148,"Name":"KENDAL  AT LEXINGTON","Phone":"(540) 463-1910","State":"VA","Supl":[{"Key":"ovrl_str_rtg","Value":"50"},{"Key":"insp_str_rtg","Value":"30"},{"Key":"stf_str_rtg","Value":"40"},{"Key":"qlty_msr_str_rtg","Value":"50"},{"Key":"rn_staffing_rating","Value":""},{"Key":"low_perf_prvdr","Value":"False"},{"Key":"prtcptn_desc","Value":"Medicare and Medicaid"},{"Key":"is_qis","Value":""}],"Zip":"24450"},{"Adr1":"4142 BONNEY ROAD","Adr2":"","City":"VIRGINIA BEACH","Dist":"0.0","ID":"495241","Lat":36.83871,"Long":-76.11911,"Name":"KINDRED NURSING AND REHABILITATION-RIVER POINTE","Phone":"(757) 340-0620","State":"VA","Supl":[{"Key":"ovrl_str_rtg","Value":"30"},{"Key":"insp_str_rtg","Value":"30"},{"Key":"stf_str_rtg","Value":"30"},{"Key":"qlty_msr_str_rtg","Value":"30"},{"Key":"rn_staffing_rating","Value":""},{"Key":"low_perf_prvdr","Value":"False"},{"Key":"prtcptn_desc","Value":"Medicare and Medicaid"},{"Key":"is_qis","Value":""}],"Zip":"23452"},{"Adr1":"1148 FIRST COLONIAL RD","Adr2":"","City":"VIRGINIA BEACH","Dist":"0.0","ID":"495086","Lat":36.86814,"Long":-76.02939,"Name":"KINDRED TCC AND REHABILITATION-BAY POINTE","Phone":"(757) 481-3321","State":"VA","Supl":[{"Key":"ovrl_str_rtg","Value":"40"},{"Key":"insp_str_rtg","Value":"20"},{"Key":"stf_str_rtg","Value":"40"},{"Key":"qlty_msr_str_rtg","Value":"50"},{"Key":"rn_staffing_rating","Value":""},{"Key":"low_perf_prvdr","Value":"False"},{"Key":"prtcptn_desc","Value":"Medicare and Medicaid"},{"Key":"is_qis","Value":""}],"Zip":"23454"},{"Adr1":"200 WEST CONSTANCE ROAD","Adr2":"","City":"SUFFOLK","Dist":"0.0","ID":"495247","Lat":36.7381248,"Long":-76.5859756,"Name":"KINDRED TCC AND REHABILITATION-NANSEMOND POINT","Phone":"(757) 539-8744","State":"VA","Supl":[{"Key":"ovrl_str_rtg","Value":"40"},{"Key":"insp_str_rtg","Value":"40"},{"Key":"stf_str_rtg","Value":"40"},{"Key":"qlty_msr_str_rtg","Value":"30"},{"Key":"rn_staffing_rating","Value":""},{"Key":"low_perf_prvdr","Value":"False"},{"Key":"prtcptn_desc","Value":"Medicare and Medicaid"},{"Key":"is_qis","Value":""}],"Zip":"23434"},{"Adr1":"350 KING'S WAY ROAD","Adr2":"","City":"MARTINSVILLE","Dist":"0.0","ID":"495408","Lat":36.6915245,"Long":-79.8725357,"Name":"KING'S GRANT RETIREMENT COMMUN","Phone":"(276) 634-1000","State":"VA","Supl":[{"Key":"ovrl_str_rtg","Value":"40"},{"Key":"insp_str_rtg","Value":"40"},{"Key":"stf_str_rtg","Value":"40"},{"Key":"qlty_msr_str_rtg","Value":"20"},{"Key":"rn_staffing_rating","Value":""},{"Key":"low_perf_prvdr","Value":"False"},{"Key":"prtcptn_desc","Value":"Medicare and Medicaid"},{"Key":"is_qis","Value":""}],"Zip":"24112"},{"Adr1":"1410 NORTH AUGUSTA STREET","Adr2":"","City":"STAUNTON","Dist":"0.0","ID":"495344","Lat":38.1616821,"Long":-79.0694656,"Name":"KINGS DAUGHTERS COMMUNITY HEALTH & REHAB","Phone":"(540) 886-6233","State":"VA","Supl":[{"Key":"ovrl_str_rtg","Value":"10"},{"Key":"insp_str_rtg","Value":"10"},{"Key":"stf_str_rtg","Value":"20"},{"Key":"qlty_msr_str_rtg","Value":"10"},{"Key":"rn_staffing_rating","Value":""},{"Key":"low_perf_prvdr","Value":"False"},{"Key":"prtcptn_desc","Value":"Medicare and Medicaid"},{"Key":"is_qis","Value":""}],"Zip":"24401"},{"Adr1":"100 ANNA GOODE WAY","Adr2":"","City":"SUFFOLK","Dist":"0.0","ID":"495366","Lat":36.787262,"Long":-76.61964,"Name":"LAKE PRINCE WOODS, INC","Phone":"(757) 923-5500","State":"VA","Supl":[{"Key":"ovrl_str_rtg","Value":"40"},{"Key":"insp_str_rtg","Value":"30"},{"Key":"stf_str_rtg","Value":"50"},{"Key":"qlty_msr_str_rtg","Value":"20"},{"Key":"rn_staffing_rating","Value":""},{"Key":"low_perf_prvdr","Value":"False"},{"Key":"prtcptn_desc","Value":"Medicare and Medicaid"},{"Key":"is_qis","Value":""}],"Zip":"23434"},{"Adr1":"1309 KEMPSVILLE RD","Adr2":"","City":"NORFOLK","Dist":"0.0","ID":"495117","Lat":36.8671036,"Long":-76.206,"Name":"LAKE TAYLOR HOSP","Phone":"(757) 461-5001","State":"VA","Supl":[{"Key":"ovrl_str_rtg","Value":"30"},{"Key":"insp_str_rtg","Value":"30"},{"Key":"stf_str_rtg","Value":"30"},{"Key":"qlty_msr_str_rtg","Value":"40"},{"Key":"rn_staffing_rating","Value":""},{"Key":"low_perf_prvdr","Value":"False"},{"Key":"prtcptn_desc","Value":"Medicare and Medicaid"},{"Key":"is_qis","Value":""}],"Zip":"23502"},{"Adr1":"1900 LAUDERDALE DRIVE","Adr2":"","City":"RICHMOND","Dist":"0.0","ID":"495403","Lat":37.60581,"Long":-77.63378,"Name":"LAKEWOOD MANOR","Phone":"(804) 740-2900","State":"VA","Supl":[{"Key":"ovrl_str_rtg","Value":"50"},{"Key":"insp_str_rtg","Value":"50"},{"Key":"stf_str_rtg","Value":"40"},{"Key":"qlty_msr_str_rtg","Value":"50"},{"Key":"rn_staffing_rating","Value":""},{"Key":"low_perf_prvdr","Value":"False"},{"Key":"prtcptn_desc","Value":"Medicare"},{"Key":"is_qis","Value":""}],"Zip":"23238"},{"Adr1":"287 SCHOOL STREET","Adr2":"","City":"KILMARNOCK","Dist":"0.0","ID":"495345","Lat":37.71078,"Long":-76.38266,"Name":"LANCASHIRE CONVALESCENT AND REHABILITATION CENTER","Phone":"(804) 435-1684","State":"VA","Supl":[{"Key":"ovrl_str_rtg","Value":"10"},{"Key":"insp_str_rtg","Value":"20"},{"Key":"stf_str_rtg","Value":"20"},{"Key":"qlty_msr_str_rtg","Value":"10"},{"Key":"rn_staffing_rating","Value":""},{"Key":"low_perf_prvdr","Value":"False"},{"Key":"prtcptn_desc","Value":"Medicare and Medicaid"},{"Key":"is_qis","Value":""}],"Zip":"22482"},{"Adr1":"208 HEALTH CARE DRIVE","Adr2":"","City":"PENNINGTON GAP","Dist":"0.0","ID":"495352","Lat":36.7499352,"Long":-83.05043,"Name":"LEE HEALTH AND REHAB CENTER","Phone":"(276) 546-4566","State":"VA","Supl":[{"Key":"ovrl_str_rtg","Value":"10"},{"Key":"insp_str_rtg","Value":"30"},{"Key":"stf_str_rtg","Value":"10"},{"Key":"qlty_msr_str_rtg","Value":"10"},{"Key":"rn_staffing_rating","Value":""},{"Key":"low_perf_prvdr","Value":"False"},{"Key":"prtcptn_desc","Value":"Medicare and Medicaid"},{"Key":"is_qis","Value":""}],"Zip":"24277"},{"Adr1":"7120 BRADDOCK ROAD","Adr2":"","City":"ANNANDALE","Dist":"0.0","ID":"495337","Lat":38.83062,"Long":-77.19676,"Name":"LEEWOOD HEALTHCARE CENTER","Phone":"(703) 256-9770","State":"VA","Supl":[{"Key":"ovrl_str_rtg","Value":"20"},{"Key":"insp_str_rtg","Value":"20"},{"Key":"stf_str_rtg","Value":"30"},{"Key":"qlty_msr_str_rtg","Value":"40"},{"Key":"rn_staffing_rating","Value":""},{"Key":"low_perf_prvdr","Value":"False"},{"Key":"prtcptn_desc","Value":"Medicare and Medicaid"},{"Key":"is_qis","Value":""}],"Zip":"22003"},{"Adr1":"2400 LEE HIGHWAY, NORTH","Adr2":"","City":"PULASKI","Dist":"0.0","ID":"495271","Lat":37.06813,"Long":-80.75685,"Name":"LEWISGALE HOSPITAL PULASKI","Phone":"(540) 994-8420","State":"VA","Supl":[{"Key":"ovrl_str_rtg","Value":"40"},{"Key":"insp_str_rtg","Value":"50"},{"Key":"stf_str_rtg","Value":"50"},{"Key":"qlty_msr_str_rtg","Value":"10"},{"Key":"rn_staffing_rating","Value":""},{"Key":"low_perf_prvdr","Value":"False"},{"Key":"prtcptn_desc","Value":"Medicare"},{"Key":"is_qis","Value":""}],"Zip":"24301"},{"Adr1":"1776 CAMBRIDGE DRIVE","Adr2":"","City":"RICHMOND","Dist":"0.0","ID":"495272","Lat":37.615696,"Long":-77.63672,"Name":"LEXINGTON COURT","Phone":"(804) 740-6174","State":"VA","Supl":[{"Key":"ovrl_str_rtg","Value":"20"},{"Key":"insp_str_rtg","Value":"20"},{"Key":"stf_str_rtg","Value":"20"},{"Key":"qlty_msr_str_rtg","Value":"20"},{"Key":"rn_staffing_rating","Value":""},{"Key":"low_perf_prvdr","Value":"False"},{"Key":"prtcptn_desc","Value":"Medicare and Medicaid"},{"Key":"is_qis","Value":""}],"Zip":"23233"},{"Adr1":"189 MONICA BLVD","Adr2":"","City":"LYNCHBURG","Dist":"0.0","ID":"495411","Lat":37.3571739,"Long":-79.17137,"Name":"LIBERTY RIDGE HEALTH & REHAB","Phone":"(434) 847-2860","State":"VA","Supl":[{"Key":"ovrl_str_rtg","Value":"10"},{"Key":"insp_str_rtg","Value":"10"},{"Key":"stf_str_rtg","Value":"20"},{"Key":"qlty_msr_str_rtg","Value":"30"},{"Key":"rn_staffing_rating","Value":""},{"Key":"low_perf_prvdr","Value":"False"},{"Key":"prtcptn_desc","Value":"Medicare and Medicaid"},{"Key":"is_qis","Value":""}],"Zip":"24502"},{"Adr1":"315 EAST LEE HIGHWAY","Adr2":"","City":"NEW MARKET","Dist":"0.0","ID":"495139","Lat":38.6491661,"Long":-78.6637039,"Name":"LIFE CARE CENTER OF NEW MARKET","Phone":"(540) 740-8041","State":"VA","Supl":[{"Key":"ovrl_str_rtg","Value":"20"},{"Key":"insp_str_rtg","Value":"20"},{"Key":"stf_str_rtg","Value":"30"},{"Key":"qlty_msr_str_rtg","Value":"20"},{"Key":"rn_staffing_rating","Value":""},{"Key":"low_perf_prvdr","Value":"False"},{"Key":"prtcptn_desc","Value":"Medicare and Medicaid"},{"Key":"is_qis","Value":""}],"Zip":"22844"},{"Adr1":"1503 MICHAEL ROAD","Adr2":"","City":"RICHMOND","Dist":"0.0","ID":"49E151","Lat":37.58431,"Long":-77.5734,"Name":"LITTLE SISTERS OF THE POOR","Phone":"(804) 288-6245","State":"VA","Supl":[{"Key":"ovrl_str_rtg","Value":"40"},{"Key":"insp_str_rtg","Value":"40"},{"Key":"stf_str_rtg","Value":"40"},{"Key":"qlty_msr_str_rtg","Value":"30"},{"Key":"rn_staffing_rating","Value":""},{"Key":"low_perf_prvdr","Value":"False"},{"Key":"prtcptn_desc","Value":"Medicaid"},{"Key":"is_qis","Value":""}],"Zip":"23229"},{"Adr1":"235 OLD WATERFORD ROAD, NORTHWEST","Adr2":"","City":"LEESBURG","Dist":"0.0","ID":"495275","Lat":39.1196632,"Long":-77.56652,"Name":"LOUDOUN NURSING AND REHAB CNTR","Phone":"(703) 771-2841","State":"VA","Supl":[{"Key":"ovrl_str_rtg","Value":"50"},{"Key":"insp_str_rtg","Value":"40"},{"Key":"stf_str_rtg","Value":"50"},{"Key":"qlty_msr_str_rtg","Value":"50"},{"Key":"rn_staffing_rating","Value":""},{"Key":"low_perf_prvdr","Value":"False"},{"Key":"prtcptn_desc","Value":"Medicare and Medicaid"},{"Key":"is_qis","Value":""}],"Zip":"20176"},{"Adr1":"210 ELM STREET","Adr2":"","City":"LOUISA","Dist":"0.0","ID":"495282","Lat":38.0202866,"Long":-78.0044861,"Name":"LOUISA HEALTH & REHABILITATION CENTER","Phone":"(540) 967-2250","State":"VA","Supl":[{"Key":"ovrl_str_rtg","Value":"50"},{"Key":"insp_str_rtg","Value":"50"},{"Key":"stf_str_rtg","Value":"40"},{"Key":"qlty_msr_str_rtg","Value":"40"},{"Key":"rn_staffing_rating","Value":""},{"Key":"low_perf_prvdr","Value":"False"},{"Key":"prtcptn_desc","Value":"Medicare and Medicaid"},{"Key":"is_qis","Value":""}],"Zip":"23093"},{"Adr1":"5615 SEMINOLE AVENUE","Adr2":"","City":"LYNCHBURG","Dist":"0.0","ID":"495105","Lat":37.36873,"Long":-79.1812,"Name":"LYNCHBURG HLTH & REHAB CNTR","Phone":"(434) 239-2657","State":"VA","Supl":[{"Key":"ovrl_str_rtg","Value":"10"},{"Key":"insp_str_rtg","Value":"10"},{"Key":"stf_str_rtg","Value":"30"},{"Key":"qlty_msr_str_rtg","Value":"40"},{"Key":"rn_staffing_rating","Value":""},{"Key":"low_perf_prvdr","Value":"False"},{"Key":"prtcptn_desc","Value":"Medicare and Medicaid"},{"Key":"is_qis","Value":""}],"Zip":"24502"},{"Adr1":"8575 RIXLEW LANE","Adr2":"","City":"MANASSAS","Dist":"0.0","ID":"495038","Lat":38.7714272,"Long":-77.50057,"Name":"MANASSAS HEALTH AND REHAB CENTER","Phone":"(703) 257-9770","State":"VA","Supl":[{"Key":"ovrl_str_rtg","Value":"10"},{"Key":"insp_str_rtg","Value":"10"},{"Key":"stf_str_rtg","Value":"30"},{"Key":"qlty_msr_str_rtg","Value":"40"},{"Key":"rn_staffing_rating","Value":""},{"Key":"low_perf_prvdr","Value":"False"},{"Key":"prtcptn_desc","Value":"Medicare and Medicaid"},{"Key":"is_qis","Value":""}],"Zip":"20109"},{"Adr1":"1510 COLLINGWOOD ROAD","Adr2":"","City":"ALEXANDRIA","Dist":"0.0","ID":"495011","Lat":38.7340775,"Long":-77.0582047,"Name":"MANORCARE HEALTH SERVICES-ALEXANDRIA","Phone":"(703) 765-6107","State":"VA","Supl":[{"Key":"ovrl_str_rtg","Value":"50"},{"Key":"insp_str_rtg","Value":"40"},{"Key":"stf_str_rtg","Value":"30"},{"Key":"qlty_msr_str_rtg","Value":"50"},{"Key":"rn_staffing_rating","Value":""},{"Key":"low_perf_prvdr","Value":"False"},{"Key":"prtcptn_desc","Value":"Medicare and Medicaid"},{"Key":"is_qis","Value":""}],"Zip":"22308"},{"Adr1":"550 SOUTH CARLIN SPRINGS ROAD","Adr2":"","City":"ARLINGTON","Dist":"0.0","ID":"495102","Lat":38.8603477,"Long":-77.12951,"Name":"MANORCARE HEALTH SERVICES-ARLINGTON","Phone":"(703) 379-7200","State":"VA","Supl":[{"Key":"ovrl_str_rtg","Value":"30"},{"Key":"insp_str_rtg","Value":"20"},{"Key":"stf_str_rtg","Value":"30"},{"Key":"qlty_msr_str_rtg","Value":"50"},{"Key":"rn_staffing_rating","Value":""},{"Key":"low_perf_prvdr","Value":"False"},{"Key":"prtcptn_desc","Value":"Medicare and Medicaid"},{"Key":"is_qis","Value":""}],"Zip":"22204"},{"Adr1":"12475 LEE JACKSON MEMORIAL HIGHWAY","Adr2":"","City":"FAIRFAX","Dist":"0.0","ID":"495217","Lat":38.8717155,"Long":-77.37872,"Name":"MANORCARE HEALTH SERVICES-FAIR OAKS","Phone":"(703) 352-7172","State":"VA","Supl":[{"Key":"ovrl_str_rtg","Value":"30"},{"Key":"insp_str_rtg","Value":"20"},{"Key":"stf_str_rtg","Value":"20"},{"Key":"qlty_msr_str_rtg","Value":"50"},{"Key":"rn_staffing_rating","Value":""},{"Key":"low_perf_prvdr","Value":"False"},{"Key":"prtcptn_desc","Value":"Medicare and Medicaid"},{"Key":"is_qis","Value":""}],"Zip":"22033"},{"Adr1":"1719 BELLEVUE AVENUE","Adr2":"","City":"RICHMOND","Dist":"0.0","ID":"495283","Lat":37.58799,"Long":-77.46899,"Name":"MANORCARE HEALTH SERVICES-IMPERIAL","Phone":"(804) 262-7364","State":"VA","Supl":[{"Key":"ovrl_str_rtg","Value":"40"},{"Key":"insp_str_rtg","Value":"30"},{"Key":"stf_str_rtg","Value":"30"},{"Key":"qlty_msr_str_rtg","Value":"50"},{"Key":"rn_staffing_rating","Value":""},{"Key":"low_perf_prvdr","Value":"False"},{"Key":"prtcptn_desc","Value":"Medicare and Medicaid"},{"Key":"is_qis","Value":""}],"Zip":"23227"},{"Adr1":"2125 HILLIARD ROAD","Adr2":"","City":"RICHMOND","Dist":"0.0","ID":"495045","Lat":37.6159554,"Long":-77.47266,"Name":"MANORCARE HEALTH SERVICES-RICHMOND","Phone":"(804) 266-9666","State":"VA","Supl":[{"Key":"ovrl_str_rtg","Value":"10"},{"Key":"insp_str_rtg","Value":"10"},{"Key":"stf_str_rtg","Value":"30"},{"Key":"qlty_msr_str_rtg","Value":"30"},{"Key":"rn_staffing_rating","Value":""},{"Key":"low_perf_prvdr","Value":"False"},{"Key":"prtcptn_desc","Value":"Medicare and Medicaid"},{"Key":"is_qis","Value":""}],"Zip":"23228"},{"Adr1":"POST OFFICE BOX 2409","Adr2":"","City":"LEBANON","Dist":"0.0","ID":"495365","Lat":36.9009438,"Long":-82.08013,"Name":"MAPLE GROVE HEALTH CARE CENTER","Phone":"(276) 889-0733","State":"VA","Supl":[{"Key":"ovrl_str_rtg","Value":"40"},{"Key":"insp_str_rtg","Value":"40"},{"Key":"stf_str_rtg","Value":"20"},{"Key":"qlty_msr_str_rtg","Value":"40"},{"Key":"rn_staffing_rating","Value":""},{"Key":"low_perf_prvdr","Value":"False"},{"Key":"prtcptn_desc","Value":"Medicare and Medicaid"},{"Key":"is_qis","Value":""}],"Zip":"24266"},{"Adr1":"30 MONTVUE DRIVE","Adr2":"","City":"LURAY","Dist":"0.0","ID":"495255","Lat":38.66307,"Long":-78.4719,"Name":"MONTVUE NURSING HOME","Phone":"(540) 743-4571","State":"VA","Supl":[{"Key":"ovrl_str_rtg","Value":"10"},{"Key":"insp_str_rtg","Value":"10"},{"Key":"stf_str_rtg","Value":"20"},{"Key":"qlty_msr_str_rtg","Value":"10"},{"Key":"rn_staffing_rating","Value":""},{"Key":"low_perf_prvdr","Value":"False"},{"Key":"prtcptn_desc","Value":"Medicare and Medicaid"},{"Key":"is_qis","Value":""}],"Zip":"22835"},{"Adr1":"8111 TISWELL DRIVE","Adr2":"","City":"ALEXANDRIA","Dist":"0.0","ID":"495211","Lat":38.7581673,"Long":-77.09098,"Name":"MOUNT VERNON NURSING AND REHABILITATION CENTER","Phone":"(703) 360-4000","State":"VA","Supl":[{"Key":"ovrl_str_rtg","Value":"50"},{"Key":"insp_str_rtg","Value":"40"},{"Key":"stf_str_rtg","Value":"50"},{"Key":"qlty_msr_str_rtg","Value":"50"},{"Key":"rn_staffing_rating","Value":""},{"Key":"low_perf_prvdr","Value":"False"},{"Key":"prtcptn_desc","Value":"Medicare and Medicaid"},{"Key":"is_qis","Value":""}],"Zip":"22306"},{"Adr1":"1776 ELLY ROAD","Adr2":"","City":"ARODA","Dist":"0.0","ID":"49E050","Lat":38.3385658,"Long":-78.20742,"Name":"MOUNTAIN VIEW NURSING HOME","Phone":"(540) 948-6831","State":"VA","Supl":[{"Key":"ovrl_str_rtg","Value":"50"},{"Key":"insp_str_rtg","Value":"30"},{"Key":"stf_str_rtg","Value":"40"},{"Key":"qlty_msr_str_rtg","Value":"50"},{"Key":"rn_staffing_rating","Value":""},{"Key":"low_perf_prvdr","Value":"False"},{"Key":"prtcptn_desc","Value":"Medicaid"},{"Key":"is_qis","Value":""}],"Zip":"22709"},{"Adr1":"310 THIRD STREET,  NE","Adr2":"","City":"NORTON","Dist":"0.0","ID":"495374","Lat":36.9431534,"Long":-82.6209259,"Name":"MOUNTAIN VIEW REGIONAL MEDICAL CENTER","Phone":"(276) 679-9100","State":"VA","Supl":[{"Key":"ovrl_str_rtg","Value":"30"},{"Key":"insp_str_rtg","Value":"30"},{"Key":"stf_str_rtg","Value":"40"},{"Key":"qlty_msr_str_rtg","Value":"10"},{"Key":"rn_staffing_rating","Value":""},{"Key":"low_perf_prvdr","Value":"False"},{"Key":"prtcptn_desc","Value":"Medicare and Medicaid"},{"Key":"is_qis","Value":""}],"Zip":"24273"},{"Adr1":"12997 NETTLES DRIVE","Adr2":"","City":"NEWPORT NEWS","Dist":"0.0","ID":"495340","Lat":37.1040878,"Long":-76.50758,"Name":"NEWPORT NEWS NURSING & REHAB","Phone":"(757) 249-8880","State":"VA","Supl":[{"Key":"ovrl_str_rtg","Value":"20"},{"Key":"insp_str_rtg","Value":"20"},{"Key":"stf_str_rtg","Value":"30"},{"Key":"qlty_msr_str_rtg","Value":"30"},{"Key":"rn_staffing_rating","Value":""},{"Key":"low_perf_prvdr","Value":"False"},{"Key":"prtcptn_desc","Value":"Medicare and Medicaid"},{"Key":"is_qis","Value":""}],"Zip":"23602"},{"Adr1":"245 NORTH STREET","Adr2":"","City":"BRISTOL","Dist":"0.0","ID":"495131","Lat":36.5958824,"Long":-82.21891,"Name":"NHC HEALTHCARE,BRISTOL","Phone":"(276) 669-4711","State":"VA","Supl":[{"Key":"ovrl_str_rtg","Value":"50"},{"Key":"insp_str_rtg","Value":"40"},{"Key":"stf_str_rtg","Value":"40"},{"Key":"qlty_msr_str_rtg","Value":"50"},{"Key":"rn_staffing_rating","Value":""},{"Key":"low_perf_prvdr","Value":"False"},{"Key":"prtcptn_desc","Value":"Medicare and Medicaid"},{"Key":"is_qis","Value":""}],"Zip":"24201"},{"Adr1":"901 EAST PRINCESS ANNE ROAD","Adr2":"","City":"NORFOLK","Dist":"0.0","ID":"495210","Lat":36.8570862,"Long":-76.27534,"Name":"NORFOLK HEALTH AND REHABILITATION CENTER","Phone":"(757) 626-1642","State":"VA","Supl":[{"Key":"ovrl_str_rtg","Value":"30"},{"Key":"insp_str_rtg","Value":"30"},{"Key":"stf_str_rtg","Value":"30"},{"Key":"qlty_msr_str_rtg","Value":"20"},{"Key":"rn_staffing_rating","Value":""},{"Key":"low_perf_prvdr","Value":"False"},{"Key":"prtcptn_desc","Value":"Medicare and Medicaid"},{"Key":"is_qis","Value":""}],"Zip":"23504"},{"Adr1":"1028 TOPPING LANE","Adr2":"","City":"HAMPTON","Dist":"0.0","ID":"495367","Lat":37.04442,"Long":-76.4330139,"Name":"NORTHAMPTON CONVALESCENT AND REHABILITATION CENTER","Phone":"(757) 826-4922","State":"VA","Supl":[{"Key":"ovrl_str_rtg","Value":"30"},{"Key":"insp_str_rtg","Value":"30"},{"Key":"stf_str_rtg","Value":"30"},{"Key":"qlty_msr_str_rtg","Value":"20"},{"Key":"rn_staffing_rating","Value":""},{"Key":"low_perf_prvdr","Value":"False"},{"Key":"prtcptn_desc","Value":"Medicare and Medicaid"},{"Key":"is_qis","Value":""}],"Zip":"23666"},{"Adr1":"377 CLONCE ST","Adr2":"","City":"WEBER CITY","Dist":"0.0","ID":"495412","Lat":36.61642,"Long":-82.5670547,"Name":"NOVA HEALTH AND REHAB","Phone":"(276) 477-5640","State":"VA","Supl":[{"Key":"ovrl_str_rtg","Value":"40"},{"Key":"insp_str_rtg","Value":"30"},{"Key":"stf_str_rtg","Value":"40"},{"Key":"qlty_msr_str_rtg","Value":"30"},{"Key":"rn_staffing_rating","Value":""},{"Key":"low_perf_prvdr","Value":"False"},{"Key":"prtcptn_desc","Value":"Medicare and Medicaid"},{"Key":"is_qis","Value":""}],"Zip":"24290"},{"Adr1":"1613 OAKWOOD STREET","Adr2":"","City":"BEDFORD","Dist":"0.0","ID":"495046","Lat":37.351963,"Long":-79.51635,"Name":"OAKWOOD MANOR BEDFORD MEM","Phone":"(540) 587-3439","State":"VA","Supl":[{"Key":"ovrl_str_rtg","Value":"40"},{"Key":"insp_str_rtg","Value":"40"},{"Key":"stf_str_rtg","Value":"40"},{"Key":"qlty_msr_str_rtg","Value":"20"},{"Key":"rn_staffing_rating","Value":""},{"Key":"low_perf_prvdr","Value":"False"},{"Key":"prtcptn_desc","Value":"Medicare and Medicaid"},{"Key":"is_qis","Value":""}],"Zip":"24523"},{"Adr1":"13700 NORTH GAYTON ROAD","Adr2":"","City":"RICHMOND","Dist":"0.0","ID":"495311","Lat":37.65532,"Long":-77.63623,"Name":"OUR LADY OF HOPE HEALTH CENTER","Phone":"(804) 360-1960","State":"VA","Supl":[{"Key":"ovrl_str_rtg","Value":"40"},{"Key":"insp_str_rtg","Value":"30"},{"Key":"stf_str_rtg","Value":"40"},{"Key":"qlty_msr_str_rtg","Value":"40"},{"Key":"rn_staffing_rating","Value":""},{"Key":"low_perf_prvdr","Value":"False"},{"Key":"prtcptn_desc","Value":"Medicare and Medicaid"},{"Key":"is_qis","Value":""}],"Zip":"23233"},{"Adr1":"751 HILLSDALE DRIVE","Adr2":"","City":"CHARLOTTESVILLE","Dist":"0.0","ID":"49A007","Lat":38.073307,"Long":-78.47363,"Name":"OUR LADY OF PEACE INC","Phone":"(434) 973-1155","State":"VA","Supl":[{"Key":"ovrl_str_rtg","Value":"50"},{"Key":"insp_str_rtg","Value":"30"},{"Key":"stf_str_rtg","Value":"40"},{"Key":"qlty_msr_str_rtg","Value":"50"},{"Key":"rn_staffing_rating","Value":""},{"Key":"low_perf_prvdr","Value":"False"},{"Key":"prtcptn_desc","Value":"Medicaid"},{"Key":"is_qis","Value":""}],"Zip":"22901"},{"Adr1":"4560 PRINCESS ANNE ROAD","Adr2":"","City":"VIRGINIA BEACH","Dist":"0.0","ID":"49E256","Lat":36.80616,"Long":-76.13648,"Name":"OUR LADY OF PERPETUAL HELP","Phone":"(757) 495-4211","State":"VA","Supl":[{"Key":"ovrl_str_rtg","Value":"40"},{"Key":"insp_str_rtg","Value":"40"},{"Key":"stf_str_rtg","Value":"40"},{"Key":"qlty_msr_str_rtg","Value":"30"},{"Key":"rn_staffing_rating","Value":""},{"Key":"low_perf_prvdr","Value":"False"},{"Key":"prtcptn_desc","Value":"Medicaid"},{"Key":"is_qis","Value":""}],"Zip":"23462"},{"Adr1":"650 NORTH JEFFERSON STREET","Adr2":"","City":"ROANOKE","Dist":"0.0","ID":"495357","Lat":37.27891,"Long":-79.94073,"Name":"OUR LADY OF THE VALLEY","Phone":"(540) 345-5111","State":"VA","Supl":[{"Key":"ovrl_str_rtg","Value":"40"},{"Key":"insp_str_rtg","Value":"30"},{"Key":"stf_str_rtg","Value":"20"},{"Key":"qlty_msr_str_rtg","Value":"50"},{"Key":"rn_staffing_rating","Value":""},{"Key":"low_perf_prvdr","Value":"False"},{"Key":"prtcptn_desc","Value":"Medicare and Medicaid"},{"Key":"is_qis","Value":""}],"Zip":"24016"},{"Adr1":"2400 E PARHAM ROAD","Adr2":"","City":"RICHMOND","Dist":"0.0","ID":"495097","Lat":37.6389275,"Long":-77.49388,"Name":"PARHAM HEALTH CARE & REHAB CEN","Phone":"(804) 264-9185","State":"VA","Supl":[{"Key":"ovrl_str_rtg","Value":"30"},{"Key":"insp_str_rtg","Value":"30"},{"Key":"stf_str_rtg","Value":"30"},{"Key":"qlty_msr_str_rtg","Value":"30"},{"Key":"rn_staffing_rating","Value":""},{"Key":"low_perf_prvdr","Value":"False"},{"Key":"prtcptn_desc","Value":"Medicare and Medicaid"},{"Key":"is_qis","Value":""}],"Zip":"23228"},{"Adr1":"4355 PHEASANT RIDGE ROAD, SW","Adr2":"","City":"ROANOKE","Dist":"0.0","ID":"495325","Lat":37.2231255,"Long":-79.95962,"Name":"PHEASANT RIDGE NURSING & REHAB CENTER","Phone":"(540) 725-8210","State":"VA","Supl":[{"Key":"ovrl_str_rtg","Value":"10"},{"Key":"insp_str_rtg","Value":"20"},{"Key":"stf_str_rtg","Value":"10"},{"Key":"qlty_msr_str_rtg","Value":"40"},{"Key":"rn_staffing_rating","Value":""},{"Key":"low_perf_prvdr","Value":"False"},{"Key":"prtcptn_desc","Value":"Medicare and Medicaid"},{"Key":"is_qis","Value":""}],"Zip":"24014"},{"Adr1":"450 PINEY FOREST RD","Adr2":"","City":"DANVILLE","Dist":"0.0","ID":"495107","Lat":36.6054039,"Long":-79.41127,"Name":"PINEY FOREST HEALTH AND REHABILITATION CENTER","Phone":"(434) 799-1565","State":"VA","Supl":[{"Key":"ovrl_str_rtg","Value":"40"},{"Key":"insp_str_rtg","Value":"40"},{"Key":"stf_str_rtg","Value":"20"},{"Key":"qlty_msr_str_rtg","Value":"30"},{"Key":"rn_staffing_rating","Value":""},{"Key":"low_perf_prvdr","Value":"False"},{"Key":"prtcptn_desc","Value":"Medicare and Medicaid"},{"Key":"is_qis","Value":""}],"Zip":"24540"},{"Adr1":"46531 HARY BYRD HIGHWAY","Adr2":"","City":"STERLING","Dist":"0.0","ID":"495179","Lat":38.96377,"Long":-77.36044,"Name":"POTOMAC FALLS HEALTH & REHAB CENTER","Phone":"(703) 834-5800","State":"VA","Supl":[{"Key":"ovrl_str_rtg","Value":"40"},{"Key":"insp_str_rtg","Value":"20"},{"Key":"stf_str_rtg","Value":"40"},{"Key":"qlty_msr_str_rtg","Value":"50"},{"Key":"rn_staffing_rating","Value":""},{"Key":"low_perf_prvdr","Value":"False"},{"Key":"prtcptn_desc","Value":"Medicare and Medicaid"},{"Key":"is_qis","Value":""}],"Zip":"20164"},{"Adr1":"1948 LANDSTOWN CENTRE WAY","Adr2":"","City":"VIRGINIA BEACH","Dist":"0.0","ID":"495418","Lat":36.77256,"Long":-76.08774,"Name":"PRINCESS ANNE HEALTH & REHABILITATION CENTER","Phone":"(757) 821-7500","State":"VA","Supl":[{"Key":"ovrl_str_rtg","Value":"Too New to Rate|1"},{"Key":"insp_str_rtg","Value":"Too New to Rate|1"},{"Key":"stf_str_rtg","Value":"Too New to Rate|1"},{"Key":"qlty_msr_str_rtg","Value":"Too New to Rate|1"},{"Key":"rn_staffing_rating","Value":""},{"Key":"low_perf_prvdr","Value":"False"},{"Key":"prtcptn_desc","Value":"Medicare and Medicaid"},{"Key":"is_qis","Value":""}],"Zip":"23456"},{"Adr1":"2401 LEE HIGHWAY","Adr2":"","City":"PULASKI","Dist":"0.0","ID":"495294","Lat":37.06932,"Long":-80.75944,"Name":"PULASKI HLTH & REHAB CNTR","Phone":"(540) 980-3111","State":"VA","Supl":[{"Key":"ovrl_str_rtg","Value":"50"},{"Key":"insp_str_rtg","Value":"50"},{"Key":"stf_str_rtg","Value":"30"},{"Key":"qlty_msr_str_rtg","Value":"20"},{"Key":"rn_staffing_rating","Value":""},{"Key":"low_perf_prvdr","Value":"False"},{"Key":"prtcptn_desc","Value":"Medicare and Medicaid"},{"Key":"is_qis","Value":""}],"Zip":"24301"},{"Adr1":"700 RANDOLPH STREET","Adr2":"","City":"RADFORD","Dist":"0.0","ID":"495355","Lat":37.1296844,"Long":-80.56907,"Name":"RADFORD HEALTH AND REHAB CENTER","Phone":"(540) 633-6533","State":"VA","Supl":[{"Key":"ovrl_str_rtg","Value":"30"},{"Key":"insp_str_rtg","Value":"30"},{"Key":"stf_str_rtg","Value":"40"},{"Key":"qlty_msr_str_rtg","Value":"10"},{"Key":"rn_staffing_rating","Value":""},{"Key":"low_perf_prvdr","Value":"False"},{"Key":"prtcptn_desc","Value":"Medicare and Medicaid"},{"Key":"is_qis","Value":""}],"Zip":"24141"},{"Adr1":"1527 GRANDIN ROAD SOUTHWEST","Adr2":"","City":"ROANOKE","Dist":"0.0","ID":"495209","Lat":37.262886,"Long":-79.9786,"Name":"RALEIGH COURT HEALTH AND REHABILITATION CENTER","Phone":"(540) 342-9525","State":"VA","Supl":[{"Key":"ovrl_str_rtg","Value":"40"},{"Key":"insp_str_rtg","Value":"40"},{"Key":"stf_str_rtg","Value":"40"},{"Key":"qlty_msr_str_rtg","Value":"30"},{"Key":"rn_staffing_rating","Value":""},{"Key":"low_perf_prvdr","Value":"False"},{"Key":"prtcptn_desc","Value":"Medicare and Medicaid"},{"Key":"is_qis","Value":""}],"Zip":"24015"},{"Adr1":"132  LANCASTER DRIVE","Adr2":"","City":"IRVINGTON","Dist":"0.0","ID":"495160","Lat":37.66693,"Long":-76.4156,"Name":"RAPPAHANNOCK WESTMINSTER CANTE","Phone":"(804) 438-4000","State":"VA","Supl":[{"Key":"ovrl_str_rtg","Value":"50"},{"Key":"insp_str_rtg","Value":"30"},{"Key":"stf_str_rtg","Value":"50"},{"Key":"qlty_msr_str_rtg","Value":"50"},{"Key":"rn_staffing_rating","Value":""},{"Key":"low_perf_prvdr","Value":"False"},{"Key":"prtcptn_desc","Value":"Medicare and Medicaid"},{"Key":"is_qis","Value":""}],"Zip":"22480"},{"Adr1":"1785 SOUTH HAYES STREET","Adr2":"","City":"ARLINGTON","Dist":"0.0","ID":"495114","Lat":38.8582268,"Long":-77.05696,"Name":"REGENCY CARE OF ARLINGTON, LLC","Phone":"(703) 920-5700","State":"VA","Supl":[{"Key":"ovrl_str_rtg","Value":"40"},{"Key":"insp_str_rtg","Value":"20"},{"Key":"stf_str_rtg","Value":"40"},{"Key":"qlty_msr_str_rtg","Value":"50"},{"Key":"rn_staffing_rating","Value":""},{"Key":"low_perf_prvdr","Value":"False"},{"Key":"prtcptn_desc","Value":"Medicare and Medicaid"},{"Key":"is_qis","Value":""}],"Zip":"22202"},{"Adr1":"112 N CONSTITUTION DR","Adr2":"","City":"GRAFTON","Dist":"0.0","ID":"495189","Lat":37.163044,"Long":-76.4616241,"Name":"REGENCY HEALTH AND REHABILITATION CENTER","Phone":"(757) 890-0675","State":"VA","Supl":[{"Key":"ovrl_str_rtg","Value":"40"},{"Key":"insp_str_rtg","Value":"40"},{"Key":"stf_str_rtg","Value":"20"},{"Key":"qlty_msr_str_rtg","Value":"30"},{"Key":"rn_staffing_rating","Value":""},{"Key":"low_perf_prvdr","Value":"False"},{"Key":"prtcptn_desc","Value":"Medicare and Medicaid"},{"Key":"is_qis","Value":""}],"Zip":"23692"},{"Adr1":"3615 WEST MAIN STREET","Adr2":"","City":"SALEM","Dist":"0.0","ID":"495013","Lat":37.2891846,"Long":-80.0824051,"Name":"RICHFIELD RECOVERY &  CARE CENT","Phone":"(540) 380-4500","State":"VA","Supl":[{"Key":"ovrl_str_rtg","Value":"10"},{"Key":"insp_str_rtg","Value":"10"},{"Key":"stf_str_rtg","Value":"20"},{"Key":"qlty_msr_str_rtg","Value":"30"},{"Key":"rn_staffing_rating","Value":""},{"Key":"low_perf_prvdr","Value":"False"},{"Key":"prtcptn_desc","Value":"Medicare and Medicaid"},{"Key":"is_qis","Value":""}],"Zip":"24153"},{"Adr1":"157  ROSS CARTER BOULEVARD","Adr2":"","City":"DUFFIELD","Dist":"0.0","ID":"495134","Lat":36.7189827,"Long":-82.796,"Name":"RIDGECREST MANOR NURSING & REHABILITATION","Phone":"(276) 431-2841","State":"VA","Supl":[{"Key":"ovrl_str_rtg","Value":"10"},{"Key":"insp_str_rtg","Value":"10"},{"Key":"stf_str_rtg","Value":"30"},{"Key":"qlty_msr_str_rtg","Value":"20"},{"Key":"rn_staffing_rating","Value":""},{"Key":"low_perf_prvdr","Value":"False"},{"Key":"prtcptn_desc","Value":"Medicare and Medicaid"},{"Key":"is_qis","Value":""}],"Zip":"24244"},{"Adr1":"PO BOX 370","Adr2":"","City":"MATHEWS","Dist":"0.0","ID":"49E215","Lat":37.4370079,"Long":-76.32066,"Name":"RIVERSIDE CONVAL CENTER-MATHEW","Phone":"(804) 725-9443","State":"VA","Supl":[{"Key":"ovrl_str_rtg","Value":"50"},{"Key":"insp_str_rtg","Value":"40"},{"Key":"stf_str_rtg","Value":"30"},{"Key":"qlty_msr_str_rtg","Value":"50"},{"Key":"rn_staffing_rating","Value":""},{"Key":"low_perf_prvdr","Value":"False"},{"Key":"prtcptn_desc","Value":"Medicaid"},{"Key":"is_qis","Value":""}],"Zip":"23109"},{"Adr1":"PO BOX 303 US 17","Adr2":"","City":"SALUDA","Dist":"0.0","ID":"49E185","Lat":37.6063538,"Long":-76.59498,"Name":"RIVERSIDE CONVAL CENTER-SALUDA","Phone":"(804) 758-2363","State":"VA","Supl":[{"Key":"ovrl_str_rtg","Value":"40"},{"Key":"insp_str_rtg","Value":"40"},{"Key":"stf_str_rtg","Value":"30"},{"Key":"qlty_msr_str_rtg","Value":"20"},{"Key":"rn_staffing_rating","Value":""},{"Key":"low_perf_prvdr","Value":"False"},{"Key":"prtcptn_desc","Value":"Medicaid"},{"Key":"is_qis","Value":""}],"Zip":"23149"},{"Adr1":"2960 CHELSEA ROAD","Adr2":"","City":"WEST POINT","Dist":"0.0","ID":"495303","Lat":37.5644379,"Long":-76.79968,"Name":"RIVERSIDE CONVALESCENT CNTR WE","Phone":"(757) 843-4323","State":"VA","Supl":[{"Key":"ovrl_str_rtg","Value":"30"},{"Key":"insp_str_rtg","Value":"30"},{"Key":"stf_str_rtg","Value":"30"},{"Key":"qlty_msr_str_rtg","Value":"20"},{"Key":"rn_staffing_rating","Value":""},{"Key":"low_perf_prvdr","Value":"False"},{"Key":"prtcptn_desc","Value":"Medicare and Medicaid"},{"Key":"is_qis","Value":""}],"Zip":"23181"},{"Adr1":"2344 RIVERSIDE DRIVE","Adr2":"","City":"DANVILLE","Dist":"0.0","ID":"495295","Lat":36.5940132,"Long":-79.4129257,"Name":"RIVERSIDE HEALTH & REHAB CNTR","Phone":"(434) 791-3800","State":"VA","Supl":[{"Key":"ovrl_str_rtg","Value":"30"},{"Key":"insp_str_rtg","Value":"30"},{"Key":"stf_str_rtg","Value":"20"},{"Key":"qlty_msr_str_rtg","Value":"40"},{"Key":"rn_staffing_rating","Value":""},{"Key":"low_perf_prvdr","Value":"False"},{"Key":"prtcptn_desc","Value":"Medicare and Medicaid"},{"Key":"is_qis","Value":""}],"Zip":"24540"},{"Adr1":"101 JOHN ROLFE DRIVE","Adr2":"","City":"SMITHFIELD","Dist":"0.0","ID":"495332","Lat":36.9816856,"Long":-76.6075058,"Name":"RIVERSIDE HEALTHY LIVING COMMUNITY-SMITHFIELD","Phone":"(757) 357-3282","State":"VA","Supl":[{"Key":"ovrl_str_rtg","Value":"40"},{"Key":"insp_str_rtg","Value":"30"},{"Key":"stf_str_rtg","Value":"50"},{"Key":"qlty_msr_str_rtg","Value":"30"},{"Key":"rn_staffing_rating","Value":""},{"Key":"low_perf_prvdr","Value":"False"},{"Key":"prtcptn_desc","Value":"Medicare and Medicaid"},{"Key":"is_qis","Value":""}],"Zip":"23430"},{"Adr1":"414 ALGONQUIN RD","Adr2":"","City":"HAMPTON","Dist":"0.0","ID":"495308","Lat":37.0124474,"Long":-76.36557,"Name":"RIVERSIDE REHABILITATION CENTER AT HAMPTON","Phone":"(757) 722-9881","State":"VA","Supl":[{"Key":"ovrl_str_rtg","Value":"40"},{"Key":"insp_str_rtg","Value":"30"},{"Key":"stf_str_rtg","Value":"30"},{"Key":"qlty_msr_str_rtg","Value":"50"},{"Key":"rn_staffing_rating","Value":""},{"Key":"low_perf_prvdr","Value":"False"},{"Key":"prtcptn_desc","Value":"Medicare and Medicaid"},{"Key":"is_qis","Value":""}],"Zip":"23661"},{"Adr1":"26181 PARKSLEY ROAD","Adr2":"","City":"PARKSLEY","Dist":"0.0","ID":"495334","Lat":37.76054,"Long":-75.62705,"Name":"RIVERSIDE SHORE REHABILITATION CENTER","Phone":"(757) 665-5133","State":"VA","Supl":[{"Key":"ovrl_str_rtg","Value":"40"},{"Key":"insp_str_rtg","Value":"30"},{"Key":"stf_str_rtg","Value":"40"},{"Key":"qlty_msr_str_rtg","Value":"20"},{"Key":"rn_staffing_rating","Value":""},{"Key":"low_perf_prvdr","Value":"False"},{"Key":"prtcptn_desc","Value":"Medicare and Medicaid"},{"Key":"is_qis","Value":""}],"Zip":"23421"},{"Adr1":"201 EPPS STREET","Adr2":"","City":"HOPEWELL","Dist":"0.0","ID":"495085","Lat":37.3043137,"Long":-77.2872,"Name":"RIVERVIEW ON THE APPOMATTOX HEALTH & REHAB CENTER","Phone":"(804) 541-1445","State":"VA","Supl":[{"Key":"ovrl_str_rtg","Value":"30"},{"Key":"insp_str_rtg","Value":"20"},{"Key":"stf_str_rtg","Value":"40"},{"Key":"qlty_msr_str_rtg","Value":"20"},{"Key":"rn_staffing_rating","Value":""},{"Key":"low_perf_prvdr","Value":"False"},{"Key":"prtcptn_desc","Value":"Medicare and Medicaid"},{"Key":"is_qis","Value":""}],"Zip":"23860"},{"Adr1":"2526 NORTH MAIN STREET","Adr2":"","City":"DANVILLE","Dist":"0.0","ID":"495015","Lat":36.62072,"Long":-79.38318,"Name":"ROMAN EAGLE REHABILITATION AND HEALTH CARE CENTER","Phone":"(434) 836-9510","State":"VA","Supl":[{"Key":"ovrl_str_rtg","Value":"40"},{"Key":"insp_str_rtg","Value":"40"},{"Key":"stf_str_rtg","Value":"20"},{"Key":"qlty_msr_str_rtg","Value":"20"},{"Key":"rn_staffing_rating","Value":""},{"Key":"low_perf_prvdr","Value":"False"},{"Key":"prtcptn_desc","Value":"Medicare and Medicaid"},{"Key":"is_qis","Value":""}],"Zip":"24540"},{"Adr1":"1945 ROANOKE BLVD","Adr2":"","City":"SALEM","Dist":"0.0","ID":"495087","Lat":37.27759,"Long":-80.02201,"Name":"SALEM HEALTH & REHABILITATION","Phone":"(540) 345-3894","State":"VA","Supl":[{"Key":"ovrl_str_rtg","Value":"30"},{"Key":"insp_str_rtg","Value":"30"},{"Key":"stf_str_rtg","Value":"30"},{"Key":"qlty_msr_str_rtg","Value":"30"},{"Key":"rn_staffing_rating","Value":""},{"Key":"low_perf_prvdr","Value":"False"},{"Key":"prtcptn_desc","Value":"Medicare and Medicaid"},{"Key":"is_qis","Value":""}],"Zip":"24153"},{"Adr1":"1200 ATLANTIC SHORES DRIVE","Adr2":"","City":"VIRGINIA BEACH","Dist":"0.0","ID":"495324","Lat":36.7878761,"Long":-75.98118,"Name":"SEASIDE HHC @ ATLANTIC SHORE","Phone":"(757) 716-2060","State":"VA","Supl":[{"Key":"ovrl_str_rtg","Value":"40"},{"Key":"insp_str_rtg","Value":"40"},{"Key":"stf_str_rtg","Value":"30"},{"Key":"qlty_msr_str_rtg","Value":"40"},{"Key":"rn_staffing_rating","Value":""},{"Key":"low_perf_prvdr","Value":"False"},{"Key":"prtcptn_desc","Value":"Medicare"},{"Key":"is_qis","Value":""}],"Zip":"23454"},{"Adr1":"184 BUFFALO ROAD","Adr2":"","City":"CLARKSVILLE","Dist":"0.0","ID":"495379","Lat":36.6221962,"Long":-78.57431,"Name":"SENTARA MEADOWVIEW TERRACE","Phone":"(434) 374-4141","State":"VA","Supl":[{"Key":"ovrl_str_rtg","Value":"40"},{"Key":"insp_str_rtg","Value":"30"},{"Key":"stf_str_rtg","Value":"20"},{"Key":"qlty_msr_str_rtg","Value":"50"},{"Key":"rn_staffing_rating","Value":""},{"Key":"low_perf_prvdr","Value":"False"},{"Key":"prtcptn_desc","Value":"Medicare and Medicaid"},{"Key":"is_qis","Value":""}],"Zip":"23927"},{"Adr1":"1604 OLD DONATION PKWY","Adr2":"","City":"VIRGINIA BEACH","Dist":"0.0","ID":"495392","Lat":36.8679237,"Long":-76.0235062,"Name":"SENTARA NSG CENTER-WINDERMERE","Phone":"(757) 496-3939","State":"VA","Supl":[{"Key":"ovrl_str_rtg","Value":"20"},{"Key":"insp_str_rtg","Value":"30"},{"Key":"stf_str_rtg","Value":"30"},{"Key":"qlty_msr_str_rtg","Value":"10"},{"Key":"rn_staffing_rating","Value":""},{"Key":"low_perf_prvdr","Value":"False"},{"Key":"prtcptn_desc","Value":"Medicare and Medicaid"},{"Key":"is_qis","Value":""}],"Zip":"23454"},{"Adr1":"776 OAK GROVE RD PO BOX 1277","Adr2":"","City":"CHESAPEAKE","Dist":"0.0","ID":"495215","Lat":36.7578,"Long":-76.21315,"Name":"SENTARA NSG CNTR CHESAPEAKE","Phone":"(757) 204-4000","State":"VA","Supl":[{"Key":"ovrl_str_rtg","Value":"30"},{"Key":"insp_str_rtg","Value":"20"},{"Key":"stf_str_rtg","Value":"40"},{"Key":"qlty_msr_str_rtg","Value":"40"},{"Key":"rn_staffing_rating","Value":""},{"Key":"low_perf_prvdr","Value":"False"},{"Key":"prtcptn_desc","Value":"Medicare and Medicaid"},{"Key":"is_qis","Value":""}],"Zip":"23320"},{"Adr1":"2230 EXECUTIVE DRIVE","Adr2":"","City":"HAMPTON","Dist":"0.0","ID":"495287","Lat":37.05244,"Long":-76.3963,"Name":"SENTARA NURSING CENTER HAMPTON","Phone":"(757) 224-2230","State":"VA","Supl":[{"Key":"ovrl_str_rtg","Value":"10"},{"Key":"insp_str_rtg","Value":"20"},{"Key":"stf_str_rtg","Value":"10"},{"Key":"qlty_msr_str_rtg","Value":"30"},{"Key":"rn_staffing_rating","Value":""},{"Key":"low_perf_prvdr","Value":"False"},{"Key":"prtcptn_desc","Value":"Medicare and Medicaid"},{"Key":"is_qis","Value":""}],"Zip":"23666"},{"Adr1":"249  SOUTH NEWTOWN RD","Adr2":"","City":"NORFOLK","Dist":"0.0","ID":"495173","Lat":36.8359528,"Long":-76.19339,"Name":"SENTARA NURSING CENTER NORFOLK","Phone":"(757) 892-5500","State":"VA","Supl":[{"Key":"ovrl_str_rtg","Value":"10"},{"Key":"insp_str_rtg","Value":"10"},{"Key":"stf_str_rtg","Value":"20"},{"Key":"qlty_msr_str_rtg","Value":"10"},{"Key":"rn_staffing_rating","Value":""},{"Key":"low_perf_prvdr","Value":"False"},{"Key":"prtcptn_desc","Value":"Medicare and Medicaid"},{"Key":"is_qis","Value":""}],"Zip":"23502"},{"Adr1":"4201 GREENWOOD DRIVE","Adr2":"","City":"PORTSMOUTH","Dist":"0.0","ID":"495201","Lat":36.79907,"Long":-76.36461,"Name":"SENTARA NURSING CENTER PORTSMOUTH","Phone":"(757) 673-5000","State":"VA","Supl":[{"Key":"ovrl_str_rtg","Value":"10"},{"Key":"insp_str_rtg","Value":"10"},{"Key":"stf_str_rtg","Value":"20"},{"Key":"qlty_msr_str_rtg","Value":"40"},{"Key":"rn_staffing_rating","Value":""},{"Key":"low_perf_prvdr","Value":"False"},{"Key":"prtcptn_desc","Value":"Medicare and Medicaid"},{"Key":"is_qis","Value":""}],"Zip":"23701"},{"Adr1":"3750 SENTARA WAY","Adr2":"","City":"VIRGINIA BEACH","Dist":"0.0","ID":"495270","Lat":36.8354225,"Long":-76.10299,"Name":"SENTARA NURSING CENTER VA BEAC","Phone":"(757) 306-2700","State":"VA","Supl":[{"Key":"ovrl_str_rtg","Value":"40"},{"Key":"insp_str_rtg","Value":"40"},{"Key":"stf_str_rtg","Value":"30"},{"Key":"qlty_msr_str_rtg","Value":"30"},{"Key":"rn_staffing_rating","Value":""},{"Key":"low_perf_prvdr","Value":"False"},{"Key":"prtcptn_desc","Value":"Medicare and Medicaid"},{"Key":"is_qis","Value":""}],"Zip":"23452"},{"Adr1":"2800 GODWIN BOULEVARD","Adr2":"","City":"SUFFOLK","Dist":"0.0","ID":"495414","Lat":36.7737732,"Long":-76.57856,"Name":"SENTARA OBICI SPECIALTY REHABILITATION CENTER","Phone":"(757) 892-5400","State":"VA","Supl":[{"Key":"ovrl_str_rtg","Value":"50"},{"Key":"insp_str_rtg","Value":"40"},{"Key":"stf_str_rtg","Value":"50"},{"Key":"qlty_msr_str_rtg","Value":"50"},{"Key":"rn_staffing_rating","Value":""},{"Key":"low_perf_prvdr","Value":"False"},{"Key":"prtcptn_desc","Value":"Medicare and Medicaid"},{"Key":"is_qis","Value":""}],"Zip":"23434"},{"Adr1":"103 ROSEHILL DRIVE","Adr2":"","City":"SOUTH BOSTON","Dist":"0.0","ID":"495372","Lat":36.7346725,"Long":-78.92235,"Name":"SENTARA WOODVIEW","Phone":"(434) 572-4906","State":"VA","Supl":[{"Key":"ovrl_str_rtg","Value":"20"},{"Key":"insp_str_rtg","Value":"20"},{"Key":"stf_str_rtg","Value":"10"},{"Key":"qlty_msr_str_rtg","Value":"50"},{"Key":"rn_staffing_rating","Value":""},{"Key":"low_perf_prvdr","Value":"False"},{"Key":"prtcptn_desc","Value":"Medicare and Medicaid"},{"Key":"is_qis","Value":""}],"Zip":"24592"},{"Adr1":"339 WESTMINISTER DRIVE","Adr2":"","City":"FISHERSVILLE","Dist":"0.0","ID":"495262","Lat":38.10348,"Long":-78.9688339,"Name":"SHENANDOAH NURSING HOME","Phone":"(540) 949-8665","State":"VA","Supl":[{"Key":"ovrl_str_rtg","Value":"30"},{"Key":"insp_str_rtg","Value":"40"},{"Key":"stf_str_rtg","Value":"30"},{"Key":"qlty_msr_str_rtg","Value":"10"},{"Key":"rn_staffing_rating","Value":""},{"Key":"low_perf_prvdr","Value":"False"},{"Key":"prtcptn_desc","Value":"Medicare and Medicaid"},{"Key":"is_qis","Value":""}],"Zip":"22939"},{"Adr1":"300 WESTMINSTER CANTERBURY DR","Adr2":"","City":"WINCHESTER","Dist":"0.0","ID":"495165","Lat":39.2005234,"Long":-78.1748047,"Name":"SHENANDOAH VLY WESTMINSTER-CANTERBURY","Phone":"(540) 665-0156","State":"VA","Supl":[{"Key":"ovrl_str_rtg","Value":"50"},{"Key":"insp_str_rtg","Value":"50"},{"Key":"stf_str_rtg","Value":"50"},{"Key":"qlty_msr_str_rtg","Value":"50"},{"Key":"rn_staffing_rating","Value":""},{"Key":"low_perf_prvdr","Value":"False"},{"Key":"prtcptn_desc","Value":"Medicare and Medicaid"},{"Key":"is_qis","Value":""}],"Zip":"22603"},{"Adr1":"1005 HAMPTON BLVD","Adr2":"","City":"NORFOLK","Dist":"0.0","ID":"495068","Lat":36.90122,"Long":-76.3041153,"Name":"SIGNATURE HEALTHCARE OF NORFOLK","Phone":"(757) 623-5602","State":"VA","Supl":[{"Key":"ovrl_str_rtg","Value":"20"},{"Key":"insp_str_rtg","Value":"10"},{"Key":"stf_str_rtg","Value":"40"},{"Key":"qlty_msr_str_rtg","Value":"20"},{"Key":"rn_staffing_rating","Value":""},{"Key":"low_perf_prvdr","Value":"False"},{"Key":"prtcptn_desc","Value":"Medicare and Medicaid"},{"Key":"is_qis","Value":""}],"Zip":"23507"},{"Adr1":"1601 BROADROCK BLVD","Adr2":"","City":"RICHMOND","Dist":"0.0","ID":"495393","Lat":37.4930954,"Long":-77.46807,"Name":"SITTER AND BARFOOT VETERANS CARE CENTER","Phone":"(804) 371-8000","State":"VA","Supl":[{"Key":"ovrl_str_rtg","Value":"40"},{"Key":"insp_str_rtg","Value":"40"},{"Key":"stf_str_rtg","Value":"40"},{"Key":"qlty_msr_str_rtg","Value":"40"},{"Key":"rn_staffing_rating","Value":""},{"Key":"low_perf_prvdr","Value":"False"},{"Key":"prtcptn_desc","Value":"Medicare and Medicaid"},{"Key":"is_qis","Value":""}],"Zip":"23224"},{"Adr1":"237 FRANKLIN PIKE ROAD, SE","Adr2":"","City":"FLOYD","Dist":"0.0","ID":"495348","Lat":36.9112434,"Long":-80.32005,"Name":"SKYLINE NURSING & REHABILITATION CENTER","Phone":"(540) 745-2016","State":"VA","Supl":[{"Key":"ovrl_str_rtg","Value":"30"},{"Key":"insp_str_rtg","Value":"30"},{"Key":"stf_str_rtg","Value":"20"},{"Key":"qlty_msr_str_rtg","Value":"40"},{"Key":"rn_staffing_rating","Value":""},{"Key":"low_perf_prvdr","Value":"False"},{"Key":"prtcptn_desc","Value":"Medicare and Medicaid"},{"Key":"is_qis","Value":""}],"Zip":"24091"},{"Adr1":"PO BOX 558","Adr2":"","City":"WOODSTOCK","Dist":"0.0","ID":"49E075","Lat":38.88178,"Long":-78.5058441,"Name":"SKYLINE TERRACE CONV HOME","Phone":"(540) 459-3738","State":"VA","Supl":[{"Key":"ovrl_str_rtg","Value":"30"},{"Key":"insp_str_rtg","Value":"20"},{"Key":"stf_str_rtg","Value":"40"},{"Key":"qlty_msr_str_rtg","Value":"40"},{"Key":"rn_staffing_rating","Value":""},{"Key":"low_perf_prvdr","Value":"False"},{"Key":"prtcptn_desc","Value":"Medicaid"},{"Key":"is_qis","Value":""}],"Zip":"22664"},{"Adr1":"11 NORTH BROAD ST","Adr2":"","City":"SALEM","Dist":"0.0","ID":"49E076","Lat":37.2930374,"Long":-80.05939,"Name":"SNYDER NURSING HOME","Phone":"(540) 389-6305","State":"VA","Supl":[{"Key":"ovrl_str_rtg","Value":"50"},{"Key":"insp_str_rtg","Value":"50"},{"Key":"stf_str_rtg","Value":"40"},{"Key":"qlty_msr_str_rtg","Value":"30"},{"Key":"rn_staffing_rating","Value":""},{"Key":"low_perf_prvdr","Value":"False"},{"Key":"prtcptn_desc","Value":"Medicaid"},{"Key":"is_qis","Value":""}],"Zip":"24153"},{"Adr1":"3823 FRANKLIN RD, SW","Adr2":"","City":"ROANOKE","Dist":"0.0","ID":"495002","Lat":37.23387,"Long":-79.97275,"Name":"SOUTH ROANOKE NURSING HOME INC","Phone":"(540) 344-4325","State":"VA","Supl":[{"Key":"ovrl_str_rtg","Value":"50"},{"Key":"insp_str_rtg","Value":"50"},{"Key":"stf_str_rtg","Value":"40"},{"Key":"qlty_msr_str_rtg","Value":"20"},{"Key":"rn_staffing_rating","Value":""},{"Key":"low_perf_prvdr","Value":"False"},{"Key":"prtcptn_desc","Value":"Medicare and Medicaid"},{"Key":"is_qis","Value":""}],"Zip":"24014"},{"Adr1":"100 FAIRVIEW DR","Adr2":"","City":"FRANKLIN","Dist":"0.0","ID":"495157","Lat":36.6909447,"Long":-76.93626,"Name":"SOUTHAMPTON MEMORIAL HOSP","Phone":"(757) 569-6287","State":"VA","Supl":[{"Key":"ovrl_str_rtg","Value":"50"},{"Key":"insp_str_rtg","Value":"40"},{"Key":"stf_str_rtg","Value":"30"},{"Key":"qlty_msr_str_rtg","Value":"50"},{"Key":"rn_staffing_rating","Value":""},{"Key":"low_perf_prvdr","Value":"False"},{"Key":"prtcptn_desc","Value":"Medicare and Medicaid"},{"Key":"is_qis","Value":""}],"Zip":"23851"},{"Adr1":"3433 SPRINGTREE DRIVE","Adr2":"","City":"ROANOKE","Dist":"0.0","ID":"495378","Lat":37.298172,"Long":-79.88974,"Name":"SPRINGTREE HEALTHCARE & REHAB CENTER","Phone":"(540) 981-2790","State":"VA","Supl":[{"Key":"ovrl_str_rtg","Value":"40"},{"Key":"insp_str_rtg","Value":"40"},{"Key":"stf_str_rtg","Value":"30"},{"Key":"qlty_msr_str_rtg","Value":"40"},{"Key":"rn_staffing_rating","Value":""},{"Key":"low_perf_prvdr","Value":"False"},{"Key":"prtcptn_desc","Value":"Medicare and Medicaid"},{"Key":"is_qis","Value":""}],"Zip":"24012"},{"Adr1":"4 RIDGEWOOD PARKWAY","Adr2":"","City":"NEWPORT NEWS","Dist":"0.0","ID":"495204","Lat":37.14501,"Long":-76.50899,"Name":"ST FRANCIS NURSING CTR","Phone":"(757) 886-6500","State":"VA","Supl":[{"Key":"ovrl_str_rtg","Value":"10"},{"Key":"insp_str_rtg","Value":"10"},{"Key":"stf_str_rtg","Value":"30"},{"Key":"qlty_msr_str_rtg","Value":"30"},{"Key":"rn_staffing_rating","Value":""},{"Key":"low_perf_prvdr","Value":"False"},{"Key":"prtcptn_desc","Value":"Medicare and Medicaid"},{"Key":"is_qis","Value":""}],"Zip":"23602"},{"Adr1":"240 RIVERSIDE DRIVE","Adr2":"","City":"BASSETT","Dist":"0.0","ID":"495216","Lat":36.7346268,"Long":-79.94445,"Name":"STANLEYTOWN HEALTH AND REHABILITATION CENTER","Phone":"(276) 629-1772","State":"VA","Supl":[{"Key":"ovrl_str_rtg","Value":"40"},{"Key":"insp_str_rtg","Value":"40"},{"Key":"stf_str_rtg","Value":"20"},{"Key":"qlty_msr_str_rtg","Value":"20"},{"Key":"rn_staffing_rating","Value":""},{"Key":"low_perf_prvdr","Value":"False"},{"Key":"prtcptn_desc","Value":"Medicare and Medicaid"},{"Key":"is_qis","Value":""}],"Zip":"24055"},{"Adr1":"508 RISON STREET","Adr2":"","City":"DANVILLE","Dist":"0.0","ID":"495166","Lat":36.57894,"Long":-79.40185,"Name":"STRATFORD HEALTHCARE CENTER","Phone":"(434) 799-4540","State":"VA","Supl":[{"Key":"ovrl_str_rtg","Value":"30"},{"Key":"insp_str_rtg","Value":"20"},{"Key":"stf_str_rtg","Value":"30"},{"Key":"qlty_msr_str_rtg","Value":"50"},{"Key":"rn_staffing_rating","Value":""},{"Key":"low_perf_prvdr","Value":"False"},{"Key":"prtcptn_desc","Value":"Medicare and Medicaid"},{"Key":"is_qis","Value":""}],"Zip":"24541"},{"Adr1":"1300 ENTERPRISE DRIVE","Adr2":"","City":"LYNCHBURG","Dist":"0.0","ID":"495381","Lat":37.3553848,"Long":-79.2418442,"Name":"SUMMIT HEALTH & REHABILITATION CENTER","Phone":"(434) 845-6045","State":"VA","Supl":[{"Key":"ovrl_str_rtg","Value":"50"},{"Key":"insp_str_rtg","Value":"40"},{"Key":"stf_str_rtg","Value":"40"},{"Key":"qlty_msr_str_rtg","Value":"50"},{"Key":"rn_staffing_rating","Value":""},{"Key":"low_perf_prvdr","Value":"False"},{"Key":"prtcptn_desc","Value":"Medicare and Medicaid"},{"Key":"is_qis","Value":""}],"Zip":"24502"},{"Adr1":"501 OAK AVENUE","Adr2":"","City":"WAYNESBORO","Dist":"0.0","ID":"495405","Lat":38.06723,"Long":-78.9016647,"Name":"SUMMIT SQUARE","Phone":"(540) 941-3100","State":"VA","Supl":[{"Key":"ovrl_str_rtg","Value":"50"},{"Key":"insp_str_rtg","Value":"50"},{"Key":"stf_str_rtg","Value":"50"},{"Key":"qlty_msr_str_rtg","Value":"40"},{"Key":"rn_staffing_rating","Value":""},{"Key":"low_perf_prvdr","Value":"False"},{"Key":"prtcptn_desc","Value":"Medicare and Medicaid"},{"Key":"is_qis","Value":""}],"Zip":"22980"},{"Adr1":"3935 SUNNYSIDE DRIVE, SUITE A","Adr2":"","City":"HARRISONBURG","Dist":"0.0","ID":"495387","Lat":38.3975868,"Long":-78.83423,"Name":"SUNNYSIDE PRESBYTERIAN RETIREMENT COMMUNITY","Phone":"(540) 568-8200","State":"VA","Supl":[{"Key":"ovrl_str_rtg","Value":"40"},{"Key":"insp_str_rtg","Value":"40"},{"Key":"stf_str_rtg","Value":"40"},{"Key":"qlty_msr_str_rtg","Value":"40"},{"Key":"rn_staffing_rating","Value":""},{"Key":"low_perf_prvdr","Value":"False"},{"Key":"prtcptn_desc","Value":"Medicare and Medicaid"},{"Key":"is_qis","Value":""}],"Zip":"22801"},{"Adr1":"340 BAGLEY CIRCLE","Adr2":"","City":"MARION","Dist":"0.0","ID":"49E131","Lat":36.8332825,"Long":-81.51288,"Name":"SW VA M H INST GERI TRT CTR","Phone":"(276) 783-1209","State":"VA","Supl":[{"Key":"ovrl_str_rtg","Value":"40"},{"Key":"insp_str_rtg","Value":"40"},{"Key":"stf_str_rtg","Value":"Not Available|2"},{"Key":"qlty_msr_str_rtg","Value":"30"},{"Key":"rn_staffing_rating","Value":""},{"Key":"low_perf_prvdr","Value":"False"},{"Key":"prtcptn_desc","Value":"Medicaid"},{"Key":"is_qis","Value":""}],"Zip":"24354"},{"Adr1":"2406 ATHERHOLT ROAD","Adr2":"","City":"LYNCHBURG","Dist":"0.0","ID":"495302","Lat":37.40994,"Long":-79.17322,"Name":"THE CARRINGTON","Phone":"(434) 846-3200","State":"VA","Supl":[{"Key":"ovrl_str_rtg","Value":"10"},{"Key":"insp_str_rtg","Value":"20"},{"Key":"stf_str_rtg","Value":"10"},{"Key":"qlty_msr_str_rtg","Value":"20"},{"Key":"rn_staffing_rating","Value":""},{"Key":"low_perf_prvdr","Value":"False"},{"Key":"prtcptn_desc","Value":"Medicare and Medicaid"},{"Key":"is_qis","Value":""}],"Zip":"24501"},{"Adr1":"955 HARPERSVILLE RD","Adr2":"","City":"NEWPORT NEWS","Dist":"0.0","ID":"495397","Lat":37.0926628,"Long":-76.452095,"Name":"THE CHESAPEAKE","Phone":"(757) 599-4376","State":"VA","Supl":[{"Key":"ovrl_str_rtg","Value":"40"},{"Key":"insp_str_rtg","Value":"30"},{"Key":"stf_str_rtg","Value":"50"},{"Key":"qlty_msr_str_rtg","Value":"40"},{"Key":"rn_staffing_rating","Value":""},{"Key":"low_perf_prvdr","Value":"False"},{"Key":"prtcptn_desc","Value":"Medicare and Medicaid"},{"Key":"is_qis","Value":""}],"Zip":"23601"},{"Adr1":"6000 PATRIOTS COLONY DRIVE","Adr2":"","City":"WILLIAMSBURG","Dist":"0.0","ID":"495369","Lat":37.25612,"Long":-76.8076,"Name":"THE CONVALESCENT CENTER AT PATRIOTS COLONY","Phone":"(757) 220-9000","State":"VA","Supl":[{"Key":"ovrl_str_rtg","Value":"30"},{"Key":"insp_str_rtg","Value":"20"},{"Key":"stf_str_rtg","Value":"50"},{"Key":"qlty_msr_str_rtg","Value":"20"},{"Key":"rn_staffing_rating","Value":""},{"Key":"low_perf_prvdr","Value":"False"},{"Key":"prtcptn_desc","Value":"Medicare"},{"Key":"is_qis","Value":""}],"Zip":"23188"},{"Adr1":"5100 FILLMORE AVENUE","Adr2":"","City":"ALEXANDRIA","Dist":"0.0","ID":"495288","Lat":38.83817,"Long":-77.11436,"Name":"THE FOUNTAINS AT WASHINGTON HOUSE","Phone":"(703) 845-5000","State":"VA","Supl":[{"Key":"ovrl_str_rtg","Value":"30"},{"Key":"insp_str_rtg","Value":"30"},{"Key":"stf_str_rtg","Value":"30"},{"Key":"qlty_msr_str_rtg","Value":"30"},{"Key":"rn_staffing_rating","Value":""},{"Key":"low_perf_prvdr","Value":"False"},{"Key":"prtcptn_desc","Value":"Medicare and Medicaid"},{"Key":"is_qis","Value":""}],"Zip":"22311"},{"Adr1":"1000 OLD DENBEIGH BOULEVARD","Adr2":"","City":"NEWPORT NEWS","Dist":"0.0","ID":"495071","Lat":37.14667,"Long":-76.50388,"Name":"THE GARDENS AT WARWICK FOREST","Phone":"(757) 875-2000","State":"VA","Supl":[{"Key":"ovrl_str_rtg","Value":"30"},{"Key":"insp_str_rtg","Value":"20"},{"Key":"stf_str_rtg","Value":"40"},{"Key":"qlty_msr_str_rtg","Value":"40"},{"Key":"rn_staffing_rating","Value":""},{"Key":"low_perf_prvdr","Value":"False"},{"Key":"prtcptn_desc","Value":"Medicare and Medicaid"},{"Key":"is_qis","Value":""}],"Zip":"23602"},{"Adr1":"250 GLEBE ROAD","Adr2":"","City":"DALEVILLE","Dist":"0.0","ID":"495404","Lat":37.4206924,"Long":-79.91461,"Name":"THE GLEBE","Phone":"(540) 591-2176","State":"VA","Supl":[{"Key":"ovrl_str_rtg","Value":"50"},{"Key":"insp_str_rtg","Value":"50"},{"Key":"stf_str_rtg","Value":"50"},{"Key":"qlty_msr_str_rtg","Value":"40"},{"Key":"rn_staffing_rating","Value":""},{"Key":"low_perf_prvdr","Value":"False"},{"Key":"prtcptn_desc","Value":"Medicare"},{"Key":"is_qis","Value":""}],"Zip":"24083"},{"Adr1":"900 NORTH TAYLOR STREET","Adr2":"","City":"ARLINGTON","Dist":"0.0","ID":"495269","Lat":38.88124,"Long":-77.1133,"Name":"THE JEFFERSON","Phone":"(703) 741-7582","State":"VA","Supl":[{"Key":"ovrl_str_rtg","Value":"50"},{"Key":"insp_str_rtg","Value":"40"},{"Key":"stf_str_rtg","Value":"40"},{"Key":"qlty_msr_str_rtg","Value":"50"},{"Key":"rn_staffing_rating","Value":""},{"Key":"low_perf_prvdr","Value":"False"},{"Key":"prtcptn_desc","Value":"Medicare and Medicaid"},{"Key":"is_qis","Value":""}],"Zip":"22203"},{"Adr1":"9101 BON AIR CROSSINGS DRIVE","Adr2":"","City":"BON AIR","Dist":"0.0","ID":"495394","Lat":37.4978333,"Long":-77.5639954,"Name":"THE LAURELS OF BON AIR","Phone":"(804) 521-9980","State":"VA","Supl":[{"Key":"ovrl_str_rtg","Value":"20"},{"Key":"insp_str_rtg","Value":"20"},{"Key":"stf_str_rtg","Value":"30"},{"Key":"qlty_msr_str_rtg","Value":"40"},{"Key":"rn_staffing_rating","Value":""},{"Key":"low_perf_prvdr","Value":"False"},{"Key":"prtcptn_desc","Value":"Medicare and Medicaid"},{"Key":"is_qis","Value":""}],"Zip":"23235"},{"Adr1":"1165 PEPSI PLACE","Adr2":"","City":"CHARLOTTESVILLE","Dist":"0.0","ID":"495377","Lat":38.06899,"Long":-78.48255,"Name":"THE LAURELS OF CHARLOTTESVILLE","Phone":"(434) 951-4200","State":"VA","Supl":[{"Key":"ovrl_str_rtg","Value":"20"},{"Key":"insp_str_rtg","Value":"20"},{"Key":"stf_str_rtg","Value":"30"},{"Key":"qlty_msr_str_rtg","Value":"30"},{"Key":"rn_staffing_rating","Value":""},{"Key":"low_perf_prvdr","Value":"False"},{"Key":"prtcptn_desc","Value":"Medicare and Medicaid"},{"Key":"is_qis","Value":""}],"Zip":"22901"},{"Adr1":"2420 PEMBERTON RD","Adr2":"","City":"RICHMOND","Dist":"0.0","ID":"495109","Lat":37.6283836,"Long":-77.57063,"Name":"THE LAURELS OF UNIVERSITY PARK","Phone":"(804) 747-9200","State":"VA","Supl":[{"Key":"ovrl_str_rtg","Value":"10"},{"Key":"insp_str_rtg","Value":"20"},{"Key":"stf_str_rtg","Value":"30"},{"Key":"qlty_msr_str_rtg","Value":"10"},{"Key":"rn_staffing_rating","Value":""},{"Key":"low_perf_prvdr","Value":"False"},{"Key":"prtcptn_desc","Value":"Medicare and Medicaid"},{"Key":"is_qis","Value":""}],"Zip":"23233"},{"Adr1":"11611 ROBIOUS ROAD","Adr2":"","City":"MIDLOTHIAN","Dist":"0.0","ID":"495257","Lat":37.5218,"Long":-77.61566,"Name":"THE LAURELS OF WILLOW CREEK","Phone":"(804) 379-4771","State":"VA","Supl":[{"Key":"ovrl_str_rtg","Value":"30"},{"Key":"insp_str_rtg","Value":"30"},{"Key":"stf_str_rtg","Value":"20"},{"Key":"qlty_msr_str_rtg","Value":"40"},{"Key":"rn_staffing_rating","Value":""},{"Key":"low_perf_prvdr","Value":"False"},{"Key":"prtcptn_desc","Value":"Medicare and Medicaid"},{"Key":"is_qis","Value":""}],"Zip":"23113"},{"Adr1":"11141 WARWICK BLVD","Adr2":"","City":"NEWPORT NEWS","Dist":"0.0","ID":"495368","Lat":37.04952,"Long":-76.47615,"Name":"THE NEWPORT","Phone":"(757) 595-3733","State":"VA","Supl":[{"Key":"ovrl_str_rtg","Value":"40"},{"Key":"insp_str_rtg","Value":"40"},{"Key":"stf_str_rtg","Value":"40"},{"Key":"qlty_msr_str_rtg","Value":"30"},{"Key":"rn_staffing_rating","Value":""},{"Key":"low_perf_prvdr","Value":"False"},{"Key":"prtcptn_desc","Value":"Medicare"},{"Key":"is_qis","Value":""}],"Zip":"23601"},{"Adr1":"20 DELFAE DRIVE","Adr2":"","City":"WARSAW","Dist":"0.0","ID":"495364","Lat":37.958744,"Long":-76.75801,"Name":"THE ORCHARD","Phone":"(804) 313-2568","State":"VA","Supl":[{"Key":"ovrl_str_rtg","Value":"30"},{"Key":"insp_str_rtg","Value":"20"},{"Key":"stf_str_rtg","Value":"40"},{"Key":"qlty_msr_str_rtg","Value":"30"},{"Key":"rn_staffing_rating","Value":""},{"Key":"low_perf_prvdr","Value":"False"},{"Key":"prtcptn_desc","Value":"Medicare and Medicaid"},{"Key":"is_qis","Value":""}],"Zip":"22572"},{"Adr1":"167 SPRING STREET","Adr2":"","City":"HOT SPRINGS","Dist":"0.0","ID":"495220","Lat":37.9994,"Long":-79.83159,"Name":"THE SPRINGS NURSING CENTER","Phone":"(540) 839-2299","State":"VA","Supl":[{"Key":"ovrl_str_rtg","Value":"30"},{"Key":"insp_str_rtg","Value":"20"},{"Key":"stf_str_rtg","Value":"40"},{"Key":"qlty_msr_str_rtg","Value":"20"},{"Key":"rn_staffing_rating","Value":""},{"Key":"low_perf_prvdr","Value":"False"},{"Key":"prtcptn_desc","Value":"Medicare and Medicaid"},{"Key":"is_qis","Value":""}],"Zip":"24445"},{"Adr1":"100 PROCESSION WAY","Adr2":"","City":"WINCHESTER","Dist":"0.0","ID":"495415","Lat":39.20097,"Long":-78.2110062,"Name":"THE VILLAGE AT ORCHARD RIDGE","Phone":"(540) 431-2800","State":"VA","Supl":[{"Key":"ovrl_str_rtg","Value":"20"},{"Key":"insp_str_rtg","Value":"20"},{"Key":"stf_str_rtg","Value":"50"},{"Key":"qlty_msr_str_rtg","Value":"10"},{"Key":"rn_staffing_rating","Value":""},{"Key":"low_perf_prvdr","Value":"False"},{"Key":"prtcptn_desc","Value":"Medicare"},{"Key":"is_qis","Value":""}],"Zip":"22603"},{"Adr1":"9229 ARLINGTON BLVD","Adr2":"","City":"FAIRFAX","Dist":"0.0","ID":"495319","Lat":38.8630257,"Long":-77.26494,"Name":"THE VIRGINIAN","Phone":"(703) 259-6351","State":"VA","Supl":[{"Key":"ovrl_str_rtg","Value":"50"},{"Key":"insp_str_rtg","Value":"30"},{"Key":"stf_str_rtg","Value":"50"},{"Key":"qlty_msr_str_rtg","Value":"50"},{"Key":"rn_staffing_rating","Value":""},{"Key":"low_perf_prvdr","Value":"False"},{"Key":"prtcptn_desc","Value":"Medicare and Medicaid"},{"Key":"is_qis","Value":""}],"Zip":"22031"},{"Adr1":"1000 FAIRVIEW HEIGHTS","Adr2":"","City":"CLIFTON FORGE","Dist":"0.0","ID":"495360","Lat":37.81844,"Long":-79.81289,"Name":"THE WOODLANDS HEALTH AND REHAB CENTER","Phone":"(540) 863-4096","State":"VA","Supl":[{"Key":"ovrl_str_rtg","Value":"40"},{"Key":"insp_str_rtg","Value":"40"},{"Key":"stf_str_rtg","Value":"20"},{"Key":"qlty_msr_str_rtg","Value":"20"},{"Key":"rn_staffing_rating","Value":""},{"Key":"low_perf_prvdr","Value":"False"},{"Key":"prtcptn_desc","Value":"Medicare and Medicaid"},{"Key":"is_qis","Value":""}],"Zip":"24422"},{"Adr1":"1000 LITTON LANE","Adr2":"","City":"BLACKSBURG","Dist":"0.0","ID":"495406","Lat":37.1999855,"Long":-80.42211,"Name":"THE WYBE AND MARIETJE KROONTJE HEALTH CARE CENTER","Phone":"(540) 953-3200","State":"VA","Supl":[{"Key":"ovrl_str_rtg","Value":"50"},{"Key":"insp_str_rtg","Value":"50"},{"Key":"stf_str_rtg","Value":"40"},{"Key":"qlty_msr_str_rtg","Value":"30"},{"Key":"rn_staffing_rating","Value":""},{"Key":"low_perf_prvdr","Value":"False"},{"Key":"prtcptn_desc","Value":"Medicare and Medicaid"},{"Key":"is_qis","Value":""}],"Zip":"24060"},{"Adr1":"1575 SCOTT DRIVE   ROUTE 5","Adr2":"","City":"FARMVILLE","Dist":"0.0","ID":"495249","Lat":37.3020973,"Long":-78.39194,"Name":"TRINITY MISSION HEALTH AND REHAB OF FARMVILLE","Phone":"(434) 392-8806","State":"VA","Supl":[{"Key":"ovrl_str_rtg","Value":"10"},{"Key":"insp_str_rtg","Value":"20"},{"Key":"stf_str_rtg","Value":"10"},{"Key":"qlty_msr_str_rtg","Value":"20"},{"Key":"rn_staffing_rating","Value":""},{"Key":"low_perf_prvdr","Value":"False"},{"Key":"prtcptn_desc","Value":"Medicare and Medicaid"},{"Key":"is_qis","Value":""}],"Zip":"23901"},{"Adr1":"222 FULCHER STREET","Adr2":"","City":"HILLSVILLE","Dist":"0.0","ID":"495187","Lat":36.7622337,"Long":-80.72851,"Name":"TRINITY MISSION HEALTH AND REHAB OF HILLSVILLE","Phone":"(276) 728-2486","State":"VA","Supl":[{"Key":"ovrl_str_rtg","Value":"40"},{"Key":"insp_str_rtg","Value":"40"},{"Key":"stf_str_rtg","Value":"30"},{"Key":"qlty_msr_str_rtg","Value":"20"},{"Key":"rn_staffing_rating","Value":""},{"Key":"low_perf_prvdr","Value":"False"},{"Key":"prtcptn_desc","Value":"Medicare and Medicaid"},{"Key":"is_qis","Value":""}],"Zip":"24343"},{"Adr1":"300 HATCHER STREET","Adr2":"","City":"ROCKY MOUNT","Dist":"0.0","ID":"495118","Lat":36.99354,"Long":-79.90312,"Name":"TRINITY MISSION HEALTH AND REHAB OF ROCKY MOUNT","Phone":"(540) 483-9261","State":"VA","Supl":[{"Key":"ovrl_str_rtg","Value":"40"},{"Key":"insp_str_rtg","Value":"40"},{"Key":"stf_str_rtg","Value":"30"},{"Key":"qlty_msr_str_rtg","Value":"20"},{"Key":"rn_staffing_rating","Value":""},{"Key":"low_perf_prvdr","Value":"False"},{"Key":"prtcptn_desc","Value":"Medicare and Medicaid"},{"Key":"is_qis","Value":""}],"Zip":"24151"},{"Adr1":"1150 NORTHWEST DRIVE","Adr2":"","City":"CHARLOTTESVILLE","Dist":"0.0","ID":"495326","Lat":38.0706749,"Long":-78.494545,"Name":"TRINITY MISSION HEALTH\/REHAB OF CHARLOTTESVILLE","Phone":"(434) 973-7933","State":"VA","Supl":[{"Key":"ovrl_str_rtg","Value":"20"},{"Key":"insp_str_rtg","Value":"20"},{"Key":"stf_str_rtg","Value":"10"},{"Key":"qlty_msr_str_rtg","Value":"50"},{"Key":"rn_staffing_rating","Value":""},{"Key":"low_perf_prvdr","Value":"False"},{"Key":"prtcptn_desc","Value":"Medicare and Medicaid"},{"Key":"is_qis","Value":""}],"Zip":"22901"},{"Adr1":"12001 IRON BRIDGE RD","Adr2":"","City":"CHESTER","Dist":"0.0","ID":"495401","Lat":37.3713226,"Long":-77.50253,"Name":"TYLER'S RETREAT AT IRON BRIDGE","Phone":"(804) 706-1023","State":"VA","Supl":[{"Key":"ovrl_str_rtg","Value":"40"},{"Key":"insp_str_rtg","Value":"30"},{"Key":"stf_str_rtg","Value":"30"},{"Key":"qlty_msr_str_rtg","Value":"50"},{"Key":"rn_staffing_rating","Value":""},{"Key":"low_perf_prvdr","Value":"False"},{"Key":"prtcptn_desc","Value":"Medicare and Medicaid"},{"Key":"is_qis","Value":""}],"Zip":"23831"},{"Adr1":"3300 RIVERMONT AVE","Adr2":"","City":"LYNCHBURG","Dist":"0.0","ID":"495112","Lat":37.4382057,"Long":-79.18716,"Name":"VA BAP HOSP DIV CEN","Phone":"(434) 947-5103","State":"VA","Supl":[{"Key":"ovrl_str_rtg","Value":"40"},{"Key":"insp_str_rtg","Value":"30"},{"Key":"stf_str_rtg","Value":"40"},{"Key":"qlty_msr_str_rtg","Value":"20"},{"Key":"rn_staffing_rating","Value":""},{"Key":"low_perf_prvdr","Value":"False"},{"Key":"prtcptn_desc","Value":"Medicare and Medicaid"},{"Key":"is_qis","Value":""}],"Zip":"24503"},{"Adr1":"1801 CAMELOT DRIVE","Adr2":"","City":"VIRGINIA BEACH","Dist":"0.0","ID":"495237","Lat":36.86755,"Long":-76.02694,"Name":"VA BEACH HEALTHCARE AND REHAB","Phone":"(757) 481-3500","State":"VA","Supl":[{"Key":"ovrl_str_rtg","Value":"10"},{"Key":"insp_str_rtg","Value":"20"},{"Key":"stf_str_rtg","Value":"10"},{"Key":"qlty_msr_str_rtg","Value":"10"},{"Key":"rn_staffing_rating","Value":""},{"Key":"low_perf_prvdr","Value":"False"},{"Key":"prtcptn_desc","Value":"Medicare and Medicaid"},{"Key":"is_qis","Value":""}],"Zip":"23454"},{"Adr1":"940 EAST LEE HIGHWAY","Adr2":"","City":"CHILHOWIE","Dist":"0.0","ID":"495133","Lat":36.80291,"Long":-81.67597,"Name":"VALLEY HEALTH CARE CENTER","Phone":"(276) 646-8911","State":"VA","Supl":[{"Key":"ovrl_str_rtg","Value":"40"},{"Key":"insp_str_rtg","Value":"30"},{"Key":"stf_str_rtg","Value":"30"},{"Key":"qlty_msr_str_rtg","Value":"50"},{"Key":"rn_staffing_rating","Value":""},{"Key":"low_perf_prvdr","Value":"False"},{"Key":"prtcptn_desc","Value":"Medicare and Medicaid"},{"Key":"is_qis","Value":""}],"Zip":"24319"},{"Adr1":"1101 HAMPTON ST","Adr2":"","City":"RICHMOND","Dist":"0.0","ID":"49E084","Lat":37.54057,"Long":-77.47137,"Name":"VIRGINIA HOME","Phone":"(804) 359-4093","State":"VA","Supl":[{"Key":"ovrl_str_rtg","Value":"20"},{"Key":"insp_str_rtg","Value":"20"},{"Key":"stf_str_rtg","Value":"20"},{"Key":"qlty_msr_str_rtg","Value":"30"},{"Key":"rn_staffing_rating","Value":""},{"Key":"low_perf_prvdr","Value":"False"},{"Key":"prtcptn_desc","Value":"Medicaid"},{"Key":"is_qis","Value":""}],"Zip":"23220"},{"Adr1":"4550 SHENANDOAH AVE N W","Adr2":"","City":"ROANOKE","Dist":"0.0","ID":"495274","Lat":37.27975,"Long":-80.0136948,"Name":"VIRGINIA VETERANS CARE CENTER","Phone":"(540) 982-2860","State":"VA","Supl":[{"Key":"ovrl_str_rtg","Value":"40"},{"Key":"insp_str_rtg","Value":"40"},{"Key":"stf_str_rtg","Value":"30"},{"Key":"qlty_msr_str_rtg","Value":"20"},{"Key":"rn_staffing_rating","Value":""},{"Key":"low_perf_prvdr","Value":"False"},{"Key":"prtcptn_desc","Value":"Medicare and Medicaid"},{"Key":"is_qis","Value":""}],"Zip":"24017"},{"Adr1":"1475 VIRGINIA AVENUE","Adr2":"","City":"HARRISONBURG","Dist":"0.0","ID":"495385","Lat":38.47439,"Long":-78.8727,"Name":"VMRC, COMPLETE LIVING CARE","Phone":"(540) 564-3500","State":"VA","Supl":[{"Key":"ovrl_str_rtg","Value":"50"},{"Key":"insp_str_rtg","Value":"30"},{"Key":"stf_str_rtg","Value":"40"},{"Key":"qlty_msr_str_rtg","Value":"50"},{"Key":"rn_staffing_rating","Value":""},{"Key":"low_perf_prvdr","Value":"False"},{"Key":"prtcptn_desc","Value":"Medicare and Medicaid"},{"Key":"is_qis","Value":""}],"Zip":"22802"},{"Adr1":"202 PAINTER ST","Adr2":"","City":"GALAX","Dist":"0.0","ID":"495126","Lat":36.6581421,"Long":-80.9287,"Name":"WADDELL NURSING AND REHAB CENTER","Phone":"(276) 236-5164","State":"VA","Supl":[{"Key":"ovrl_str_rtg","Value":"30"},{"Key":"insp_str_rtg","Value":"40"},{"Key":"stf_str_rtg","Value":"40"},{"Key":"qlty_msr_str_rtg","Value":"10"},{"Key":"rn_staffing_rating","Value":""},{"Key":"low_perf_prvdr","Value":"False"},{"Key":"prtcptn_desc","Value":"Medicare and Medicaid"},{"Key":"is_qis","Value":""}],"Zip":"24333"},{"Adr1":"POST OFFICE BOX 887","Adr2":"","City":"GLOUCESTER","Dist":"0.0","ID":"495276","Lat":37.42185,"Long":-76.54394,"Name":"WALTER REED CONVALESCENT AND REHABILITATION CENTER","Phone":"(804) 693-6503","State":"VA","Supl":[{"Key":"ovrl_str_rtg","Value":"10"},{"Key":"insp_str_rtg","Value":"10"},{"Key":"stf_str_rtg","Value":"30"},{"Key":"qlty_msr_str_rtg","Value":"10"},{"Key":"rn_staffing_rating","Value":""},{"Key":"low_perf_prvdr","Value":"False"},{"Key":"prtcptn_desc","Value":"Medicare and Medicaid"},{"Key":"is_qis","Value":""}],"Zip":"23061"},{"Adr1":"1000 SHENANDOAH AVENUE","Adr2":"","City":"FRONT ROYAL","Dist":"0.0","ID":"495316","Lat":38.9181671,"Long":-78.19444,"Name":"WARREN MEMORIAL HOSP LYNN CARE","Phone":"(540) 636-0300","State":"VA","Supl":[{"Key":"ovrl_str_rtg","Value":"30"},{"Key":"insp_str_rtg","Value":"20"},{"Key":"stf_str_rtg","Value":"50"},{"Key":"qlty_msr_str_rtg","Value":"30"},{"Key":"rn_staffing_rating","Value":""},{"Key":"low_perf_prvdr","Value":"False"},{"Key":"prtcptn_desc","Value":"Medicare and Medicaid"},{"Key":"is_qis","Value":""}],"Zip":"22630"},{"Adr1":"456 E MAIN ST","Adr2":"","City":"WAVERLY","Dist":"0.0","ID":"495185","Lat":37.04128,"Long":-77.074234,"Name":"WAVERLY HEALTH AND REHABILITATION CENTER","Phone":"(804) 834-3975","State":"VA","Supl":[{"Key":"ovrl_str_rtg","Value":"20"},{"Key":"insp_str_rtg","Value":"10"},{"Key":"stf_str_rtg","Value":"10"},{"Key":"qlty_msr_str_rtg","Value":"50"},{"Key":"rn_staffing_rating","Value":""},{"Key":"low_perf_prvdr","Value":"False"},{"Key":"prtcptn_desc","Value":"Medicare and Medicaid"},{"Key":"is_qis","Value":""}],"Zip":"23890"},{"Adr1":"730 LUNENBURG HIGHW","Adr2":"","City":"KEYSVILLE","Dist":"0.0","ID":"495226","Lat":37.04043,"Long":-78.48333,"Name":"WAYLAND NURSING AND REHABILITATION CENTER","Phone":"(434) 736-8406","State":"VA","Supl":[{"Key":"ovrl_str_rtg","Value":"30"},{"Key":"insp_str_rtg","Value":"30"},{"Key":"stf_str_rtg","Value":"10"},{"Key":"qlty_msr_str_rtg","Value":"50"},{"Key":"rn_staffing_rating","Value":""},{"Key":"low_perf_prvdr","Value":"False"},{"Key":"prtcptn_desc","Value":"Medicare and Medicaid"},{"Key":"is_qis","Value":""}],"Zip":"23947"},{"Adr1":"12185 CLIPPER DRIVE","Adr2":"","City":"LAKE RIDGE","Dist":"0.0","ID":"495280","Lat":38.68608,"Long":-77.27597,"Name":"WESTMINSTER AT LAKE RIDGE","Phone":"(703) 643-9017","State":"VA","Supl":[{"Key":"ovrl_str_rtg","Value":"50"},{"Key":"insp_str_rtg","Value":"40"},{"Key":"stf_str_rtg","Value":"40"},{"Key":"qlty_msr_str_rtg","Value":"50"},{"Key":"rn_staffing_rating","Value":""},{"Key":"low_perf_prvdr","Value":"False"},{"Key":"prtcptn_desc","Value":"Medicare and Medicaid"},{"Key":"is_qis","Value":""}],"Zip":"22192"},{"Adr1":"3100 SHORE DRIVE","Adr2":"","City":"VIRGINIA BEACH","Dist":"0.0","ID":"495127","Lat":36.9102745,"Long":-76.07932,"Name":"WESTMINSTER CANTERBURY  CHESAP","Phone":"(757) 496-1158","State":"VA","Supl":[{"Key":"ovrl_str_rtg","Value":"50"},{"Key":"insp_str_rtg","Value":"30"},{"Key":"stf_str_rtg","Value":"50"},{"Key":"qlty_msr_str_rtg","Value":"50"},{"Key":"rn_staffing_rating","Value":""},{"Key":"low_perf_prvdr","Value":"False"},{"Key":"prtcptn_desc","Value":"Medicare and Medicaid"},{"Key":"is_qis","Value":""}],"Zip":"23451"},{"Adr1":"250 PANTOPS MOUNTAIN RD","Adr2":"","City":"CHARLOTTESVILLE","Dist":"0.0","ID":"495225","Lat":38.0289268,"Long":-78.43848,"Name":"WESTMINSTER CANTERBURY BLUE RI","Phone":"(434) 972-3100","State":"VA","Supl":[{"Key":"ovrl_str_rtg","Value":"50"},{"Key":"insp_str_rtg","Value":"50"},{"Key":"stf_str_rtg","Value":"Not Available|2"},{"Key":"qlty_msr_str_rtg","Value":"50"},{"Key":"rn_staffing_rating","Value":""},{"Key":"low_perf_prvdr","Value":"False"},{"Key":"prtcptn_desc","Value":"Medicare"},{"Key":"is_qis","Value":""}],"Zip":"22911"},{"Adr1":"501 VES RD","Adr2":"","City":"LYNCHBURG","Dist":"0.0","ID":"495120","Lat":37.4501152,"Long":-79.191124,"Name":"WESTMINSTER-CANTERBURY -LYNCHB","Phone":"(434) 386-3500","State":"VA","Supl":[{"Key":"ovrl_str_rtg","Value":"50"},{"Key":"insp_str_rtg","Value":"40"},{"Key":"stf_str_rtg","Value":"50"},{"Key":"qlty_msr_str_rtg","Value":"50"},{"Key":"rn_staffing_rating","Value":""},{"Key":"low_perf_prvdr","Value":"False"},{"Key":"prtcptn_desc","Value":"Medicare and Medicaid"},{"Key":"is_qis","Value":""}],"Zip":"24503"},{"Adr1":"1600 WESTBROOK AVE","Adr2":"","City":"RICHMOND","Dist":"0.0","ID":"495096","Lat":37.59723,"Long":-77.46154,"Name":"WESTMINSTER-CANTERBURY HOUSE","Phone":"(804) 264-6000","State":"VA","Supl":[{"Key":"ovrl_str_rtg","Value":"50"},{"Key":"insp_str_rtg","Value":"40"},{"Key":"stf_str_rtg","Value":"50"},{"Key":"qlty_msr_str_rtg","Value":"30"},{"Key":"rn_staffing_rating","Value":""},{"Key":"low_perf_prvdr","Value":"False"},{"Key":"prtcptn_desc","Value":"Medicare and Medicaid"},{"Key":"is_qis","Value":""}],"Zip":"23227"},{"Adr1":"2400 MCKINNEY BOULEVARD","Adr2":"","City":"COLONIAL BEACH","Dist":"0.0","ID":"495268","Lat":38.2644539,"Long":-76.98312,"Name":"WESTMORELAND REHABILITATION & HEALTHCARE CENTER","Phone":"(804) 224-2222","State":"VA","Supl":[{"Key":"ovrl_str_rtg","Value":"20"},{"Key":"insp_str_rtg","Value":"30"},{"Key":"stf_str_rtg","Value":"10"},{"Key":"qlty_msr_str_rtg","Value":"20"},{"Key":"rn_staffing_rating","Value":""},{"Key":"low_perf_prvdr","Value":"False"},{"Key":"prtcptn_desc","Value":"Medicare and Medicaid"},{"Key":"is_qis","Value":""}],"Zip":"22443"},{"Adr1":"7300 FOREST AVE","Adr2":"","City":"RICHMOND","Dist":"0.0","ID":"495227","Lat":37.60604,"Long":-77.5329056,"Name":"WESTPORT REHABILITATION AND NURSING CENTER","Phone":"(804) 288-3152","State":"VA","Supl":[{"Key":"ovrl_str_rtg","Value":"50"},{"Key":"insp_str_rtg","Value":"30"},{"Key":"stf_str_rtg","Value":"40"},{"Key":"qlty_msr_str_rtg","Value":"50"},{"Key":"rn_staffing_rating","Value":""},{"Key":"low_perf_prvdr","Value":"False"},{"Key":"prtcptn_desc","Value":"Medicare and Medicaid"},{"Key":"is_qis","Value":""}],"Zip":"23226"},{"Adr1":"WESTWOOD MEDICAL PARK","Adr2":"","City":"BLUEFIELD","Dist":"0.0","ID":"495200","Lat":37.2526169,"Long":-81.27121,"Name":"WESTWOOD CENTER","Phone":"(276) 322-5439","State":"VA","Supl":[{"Key":"ovrl_str_rtg","Value":"40"},{"Key":"insp_str_rtg","Value":"40"},{"Key":"stf_str_rtg","Value":"Not Available|2"},{"Key":"qlty_msr_str_rtg","Value":"30"},{"Key":"rn_staffing_rating","Value":""},{"Key":"low_perf_prvdr","Value":"False"},{"Key":"prtcptn_desc","Value":"Medicare and Medicaid"},{"Key":"is_qis","Value":""}],"Zip":"24605"},{"Adr1":"3900 WINDSOR HALL DRIVE","Adr2":"","City":"WILLIAMSBURG","Dist":"0.0","ID":"495402","Lat":37.2744675,"Long":-76.7570343,"Name":"WINDSORMEADE OF WILLIAMSBURG","Phone":"(757) 941-3600","State":"VA","Supl":[{"Key":"ovrl_str_rtg","Value":"50"},{"Key":"insp_str_rtg","Value":"40"},{"Key":"stf_str_rtg","Value":"50"},{"Key":"qlty_msr_str_rtg","Value":"30"},{"Key":"rn_staffing_rating","Value":""},{"Key":"low_perf_prvdr","Value":"False"},{"Key":"prtcptn_desc","Value":"Medicare"},{"Key":"is_qis","Value":""}],"Zip":"23188"},{"Adr1":"2729 KING ST","Adr2":"","City":"ALEXANDRIA","Dist":"0.0","ID":"495019","Lat":38.81614,"Long":-77.0719757,"Name":"WOODBINE REHABILITATION & HEALTHCARE CENTER","Phone":"(703) 836-8838","State":"VA","Supl":[{"Key":"ovrl_str_rtg","Value":"40"},{"Key":"insp_str_rtg","Value":"40"},{"Key":"stf_str_rtg","Value":"40"},{"Key":"qlty_msr_str_rtg","Value":"30"},{"Key":"rn_staffing_rating","Value":""},{"Key":"low_perf_prvdr","Value":"False"},{"Key":"prtcptn_desc","Value":"Medicare and Medicaid"},{"Key":"is_qis","Value":""}],"Zip":"22302"},{"Adr1":"5500 WILLIAMSBURG LANDING DR","Adr2":"","City":"WILLIAMSBURG","Dist":"0.0","ID":"495184","Lat":37.2467575,"Long":-76.7280045,"Name":"WOODHAVEN HALL AT WILLIAMSBURG LANDING","Phone":"(757) 258-2196","State":"VA","Supl":[{"Key":"ovrl_str_rtg","Value":"50"},{"Key":"insp_str_rtg","Value":"50"},{"Key":"stf_str_rtg","Value":"Not Available|2"},{"Key":"qlty_msr_str_rtg","Value":"50"},{"Key":"rn_staffing_rating","Value":""},{"Key":"low_perf_prvdr","Value":"False"},{"Key":"prtcptn_desc","Value":"Medicare"},{"Key":"is_qis","Value":""}],"Zip":"23185"},{"Adr1":"11 DAIRY LANE","Adr2":"","City":"FREDERICKSBURG","Dist":"0.0","ID":"495246","Lat":38.3059425,"Long":-77.48013,"Name":"WOODMONT CENTER","Phone":"(540) 371-9414","State":"VA","Supl":[{"Key":"ovrl_str_rtg","Value":"20"},{"Key":"insp_str_rtg","Value":"20"},{"Key":"stf_str_rtg","Value":"30"},{"Key":"qlty_msr_str_rtg","Value":"40"},{"Key":"rn_staffing_rating","Value":""},{"Key":"low_perf_prvdr","Value":"False"},{"Key":"prtcptn_desc","Value":"Medicare and Medicaid"},{"Key":"is_qis","Value":""}],"Zip":"22405"},{"Adr1":"600 W RIDGE RD","Adr2":"","City":"WYTHEVILLE","Dist":"0.0","ID":"495167","Lat":36.9547729,"Long":-81.09688,"Name":"WYTHE CNTY COMMUNITY HOSP ECU","Phone":"(276) 228-0200","State":"VA","Supl":[{"Key":"ovrl_str_rtg","Value":"40"},{"Key":"insp_str_rtg","Value":"50"},{"Key":"stf_str_rtg","Value":"Not Available|2"},{"Key":"qlty_msr_str_rtg","Value":"10"},{"Key":"rn_staffing_rating","Value":""},{"Key":"low_perf_prvdr","Value":"False"},{"Key":"prtcptn_desc","Value":"Medicare and Medicaid"},{"Key":"is_qis","Value":""}],"Zip":"24382"},{"Adr1":"113 BATTLE ROAD","Adr2":"","City":"YORKTOWN","Dist":"0.0","ID":"495342","Lat":37.1957779,"Long":-76.48798,"Name":"YORK CONVALESCENT CENTER","Phone":"(757) 898-1491","State":"VA","Supl":[{"Key":"ovrl_str_rtg","Value":"40"},{"Key":"insp_str_rtg","Value":"40"},{"Key":"stf_str_rtg","Value":"20"},{"Key":"qlty_msr_str_rtg","Value":"20"},{"Key":"rn_staffing_rating","Value":""},{"Key":"low_perf_prvdr","Value":"False"},{"Key":"prtcptn_desc","Value":"Medicare and Medicaid"},{"Key":"is_qis","Value":""}],"Zip":"23692"}],"error":"","recordcount":287,"proximityDistance":25,"starRatingsCount":[{"Key":"5Star","Value":"63"},{"Key":"4Star","Value":"60"},{"Key":"3Star","Value":"54"},{"Key":"2Star","Value":"58"},{"Key":"1Star","Value":"49"}],"overallRatingsCount":[]}